{
  "type": "FeatureCollection",
  "features": [
    {
      "type": "Feature",
      "properties": {
        "#": "87",
        "name": "ＢＦＬクリニック",
        "address1": "葵区鷹匠二丁目14番12号",
        "address2": "ラ・ティエーラ鷹匠３Ｍ",
        " 開設者": "齋藤　信子",
        " 管理者": "齋藤　信子",
        "start_date": "2019/07/01"
      },
      "geometry": {
        "type": "Point",
        "coordinates": [
          138.389476,
          34.977131
        ]
      }
    },
    {
      "type": "Feature",
      "properties": {
        "#": "234",
        "name": "ＪＡ静岡厚生連　清水厚生病院",
        "address1": "清水区庵原町５７８番地の１",
        "address2": "",
        " 開設者": "静岡県厚生農業協同組合連合会",
        " 管理者": "西村　明人",
        "start_date": "1981/10/01"
      },
      "geometry": {
        "type": "Point",
        "coordinates": [
          138.474397,
          35.045545
        ]
      }
    },
    {
      "type": "Feature",
      "properties": {
        "#": "35",
        "name": "ＪＡ静岡厚生連　静岡厚生病院",
        "address1": "葵区北番町２３番地",
        "address2": "",
        " 開設者": "静岡県厚生農業協同組合連合会",
        " 管理者": "水野　伸一",
        "start_date": "1949/09/03"
      },
      "geometry": {
        "type": "Point",
        "coordinates": [
          138.370127,
          34.978792
        ]
      }
    },
    {
      "type": "Feature",
      "properties": {
        "#": "162",
        "name": "ＪＩＮクリニック",
        "address1": "駿河区聖一色414番地の８",
        "address2": "",
        " 開設者": "医療法人社団　朋仁会",
        " 管理者": "吉井　仁",
        "start_date": "2019/11/01"
      },
      "geometry": {
        "type": "Point",
        "coordinates": [
          138.426372,
          34.986495
        ]
      }
    },
    {
      "type": "Feature",
      "properties": {
        "#": "204",
        "name": "あかさか整形外科",
        "address1": "清水区木の下町１９０",
        "address2": "",
        " 開設者": "赤坂　理",
        " 管理者": "赤坂　理",
        "start_date": "2002/08/01"
      },
      "geometry": {
        "type": "Point",
        "coordinates": [
          138.46924,
          35.006071
        ]
      }
    },
    {
      "type": "Feature",
      "properties": {
        "#": "3",
        "name": "あきやま呼吸器クリニック",
        "address1": "葵区呉服町二丁目２番地の30",
        "address2": "",
        " 開設者": "医療法人社団　唐木会",
        " 管理者": "秋山仁一郎",
        "start_date": "2000/08/01"
      },
      "geometry": {
        "type": "Point",
        "coordinates": [
          138.382043,
          34.974365
        ]
      }
    },
    {
      "type": "Feature",
      "properties": {
        "#": "126",
        "name": "あさいクリニック",
        "address1": "駿河区津島町6-31",
        "address2": "",
        " 開設者": "医療法人社団あさいクリニック",
        " 管理者": "浅井隆志",
        "start_date": ""
      },
      "geometry": {
        "type": "Point",
        "coordinates": [
          138.383307,
          34.959419
        ]
      }
    },
    {
      "type": "Feature",
      "properties": {
        "#": "128",
        "name": "あしたば診療所",
        "address1": "駿河区中島1687番地の２",
        "address2": "",
        " 開設者": "柳岡　正範",
        " 管理者": "柳岡　正範",
        "start_date": "2019/04/22"
      },
      "geometry": {
        "type": "Point",
        "coordinates": [
          138.400873,
          34.934906
        ]
      }
    },
    {
      "type": "Feature",
      "properties": {
        "#": "207",
        "name": "アツミ胃腸科内科クリニック",
        "address1": "清水区中之郷一丁目５番11号",
        "address2": "",
        " 開設者": "渥美　猛",
        " 管理者": "渥美　猛",
        "start_date": "2019/04/01"
      },
      "geometry": {
        "type": "Point",
        "coordinates": [
          138.439343,
          34.997383
        ]
      }
    },
    {
      "type": "Feature",
      "properties": {
        "#": "5",
        "name": "いとう耳鼻咽喉科",
        "address1": "葵区千代田六丁目30番26号",
        "address2": "",
        " 開設者": "医療法人社団　純真会",
        " 管理者": "伊藤　純一",
        "start_date": "2005/08/01"
      },
      "geometry": {
        "type": "Point",
        "coordinates": [
          138.408673,
          34.999087
        ]
      }
    },
    {
      "type": "Feature",
      "properties": {
        "#": "213",
        "name": "いりえ耳鼻咽喉科",
        "address1": "清水区入江南町14番27号",
        "address2": "",
        " 開設者": "医療法人社団清雅会",
        " 管理者": "杉山　健一",
        "start_date": "2020/01/01"
      },
      "geometry": {
        "type": "Point",
        "coordinates": [
          138.477736,
          35.016293
        ]
      }
    },
    {
      "type": "Feature",
      "properties": {
        "#": "134",
        "name": "うえだ小児科",
        "address1": "駿河区登呂六丁目13番36号",
        "address2": "",
        " 開設者": "医療法人社団　静福会",
        " 管理者": "岩田　真喜子",
        "start_date": "1989/09/01"
      },
      "geometry": {
        "type": "Point",
        "coordinates": [
          138.403536,
          34.952076
        ]
      }
    },
    {
      "type": "Feature",
      "properties": {
        "#": "8",
        "name": "えいもと内科・消化器科クリニック",
        "address1": "葵区瀬名三丁目38番９号",
        "address2": "",
        " 開設者": "医療法人社団榮和会",
        " 管理者": "榮本　昭剛",
        "start_date": "2007/01/05"
      },
      "geometry": {
        "type": "Point",
        "coordinates": [
          138.42281,
          35.022676
        ]
      }
    },
    {
      "type": "Feature",
      "properties": {
        "#": "218",
        "name": "えぐち内科クリニック",
        "address1": "清水区日立町4番4号",
        "address2": "",
        " 開設者": "医療法人社団　慶壽会",
        " 管理者": "江口　豊壽",
        "start_date": "2007/04/01"
      },
      "geometry": {
        "type": "Point",
        "coordinates": [
          138.486281,
          34.99472
        ]
      }
    },
    {
      "type": "Feature",
      "properties": {
        "#": "9",
        "name": "えのもと循環器科・内科",
        "address1": "葵区安西一丁目７５番地",
        "address2": "",
        " 開設者": "榎本　信雄",
        " 管理者": "榎本　信雄",
        "start_date": "2005/10/05"
      },
      "geometry": {
        "type": "Point",
        "coordinates": [
          138.373135,
          34.979928
        ]
      }
    },
    {
      "type": "Feature",
      "properties": {
        "#": "136",
        "name": "えんどう内科クリニック",
        "address1": "駿河区中田四丁目4番38号",
        "address2": "",
        " 開設者": "医療法人社団　イーエム倶楽部",
        " 管理者": "遠藤　茂樹",
        "start_date": "2006/01/04"
      },
      "geometry": {
        "type": "Point",
        "coordinates": [
          138.39876,
          34.960189
        ]
      }
    },
    {
      "type": "Feature",
      "properties": {
        "#": "220",
        "name": "おおいし脳神経外科クリニック",
        "address1": "清水区高橋南町９番１５号",
        "address2": "",
        " 開設者": "大石　晴之",
        " 管理者": "大石　晴之",
        "start_date": "2009/04/10"
      },
      "geometry": {
        "type": "Point",
        "coordinates": [
          138.475806,
          35.027178
        ]
      }
    },
    {
      "type": "Feature",
      "properties": {
        "#": "222",
        "name": "おおぬき内科クリニック",
        "address1": "清水区押切2002番地の１",
        "address2": "",
        " 開設者": "大貫　勝美",
        " 管理者": "大貫　勝美",
        "start_date": "2015/10/01"
      },
      "geometry": {
        "type": "Point",
        "coordinates": [
          138.455966,
          35.033324
        ]
      }
    },
    {
      "type": "Feature",
      "properties": {
        "#": "140",
        "name": "おおや整形外科クリニック",
        "address1": "駿河区片山8-15",
        "address2": "",
        " 開設者": "医療法人社団　栄成会",
        " 管理者": "佐藤栄作",
        "start_date": "2001/08/01"
      },
      "geometry": {
        "type": "Point",
        "coordinates": [
          138.423114,
          34.966147
        ]
      }
    },
    {
      "type": "Feature",
      "properties": {
        "#": "223",
        "name": "おきつ耳鼻咽喉科クリニック",
        "address1": "清水区八木間町1662番地の１",
        "address2": "",
        " 開設者": "大久保　亜季",
        " 管理者": "大久保　亜季",
        "start_date": "2017/10/03"
      },
      "geometry": {
        "type": "Point",
        "coordinates": [
          138.524311,
          35.064376
        ]
      }
    },
    {
      "type": "Feature",
      "properties": {
        "#": "142",
        "name": "おさだ耳鼻咽喉科",
        "address1": "駿河区丸子新田536番地",
        "address2": "",
        " 開設者": "医療法人社団　藤信会",
        " 管理者": "臼倉　洋子",
        "start_date": "2015/04/01"
      },
      "geometry": {
        "type": "Point",
        "coordinates": [
          138.367528,
          34.945301
        ]
      }
    },
    {
      "type": "Feature",
      "properties": {
        "#": "42",
        "name": "おもて循環器科",
        "address1": "葵区馬場町110",
        "address2": "",
        " 開設者": "医療法人社団　静岡循環器クリニック",
        " 管理者": "表　信吾",
        "start_date": "1987/09/01"
      },
      "geometry": {
        "type": "Point",
        "coordinates": [
          138.378549,
          34.977925
        ]
      }
    },
    {
      "type": "Feature",
      "properties": {
        "#": "17",
        "name": "かげやま医院",
        "address1": "葵区相生町9番5号",
        "address2": "",
        " 開設者": "医療法人社団　灯弘会",
        " 管理者": "影山　慎二",
        "start_date": "2006/02/01"
      },
      "geometry": {
        "type": "Point",
        "coordinates": [
          138.392714,
          34.978734
        ]
      }
    },
    {
      "type": "Feature",
      "properties": {
        "#": "225",
        "name": "かどたこどもクリニック",
        "address1": "清水区北脇580番地の１",
        "address2": "",
        " 開設者": "門田　景介",
        " 管理者": "門田　景介",
        "start_date": "2016/04/20"
      },
      "geometry": {
        "type": "Point",
        "coordinates": [
          138.461371,
          35.019217
        ]
      }
    },
    {
      "type": "Feature",
      "properties": {
        "#": "22",
        "name": "かみあし整形外科ペインクリニック",
        "address1": "葵区上足洗一丁目２番38号",
        "address2": "",
        " 開設者": "医療法人社団　直和会",
        " 管理者": "杉山　直幹",
        "start_date": "2011/10/01"
      },
      "geometry": {
        "type": "Point",
        "coordinates": [
          138.395674,
          34.988116
        ]
      }
    },
    {
      "type": "Feature",
      "properties": {
        "#": "23",
        "name": "かん小児科クリニック",
        "address1": "葵区長沼258番地の７",
        "address2": "",
        " 開設者": "医療法人社団かん小児科",
        " 管理者": "菅明彦",
        "start_date": "2003/08/01"
      },
      "geometry": {
        "type": "Point",
        "coordinates": [
          138.411078,
          34.991002
        ]
      }
    },
    {
      "type": "Feature",
      "properties": {
        "#": "144",
        "name": "きくち内科医院",
        "address1": "駿河区新川二丁目８番３号",
        "address2": "",
        " 開設者": "医療法人社団　恵勇会",
        " 管理者": "菊池隆介",
        "start_date": ""
      },
      "geometry": {
        "type": "Point",
        "coordinates": [
          138.385621,
          34.961155
        ]
      }
    },
    {
      "type": "Feature",
      "properties": {
        "#": "24",
        "name": "きたざわ内科",
        "address1": "葵区田町二丁目3-1",
        "address2": "",
        " 開設者": "北澤　透",
        " 管理者": "北澤　透",
        "start_date": "2005/11/18"
      },
      "geometry": {
        "type": "Point",
        "coordinates": [
          138.367219,
          34.974473
        ]
      }
    },
    {
      "type": "Feature",
      "properties": {
        "#": "145",
        "name": "キッズクリニックさの",
        "address1": "駿河区敷地1-18-19",
        "address2": "",
        " 開設者": "医療法人社団　ありす倶楽部",
        " 管理者": "佐野正",
        "start_date": "2004/04/01"
      },
      "geometry": {
        "type": "Point",
        "coordinates": [
          138.413091,
          34.951326
        ]
      }
    },
    {
      "type": "Feature",
      "properties": {
        "#": "146",
        "name": "くらた整形外科",
        "address1": "駿河区下川原二丁目１番33号",
        "address2": "",
        " 開設者": "医療法人社団　ＲＳＧ",
        " 管理者": "倉田　亮",
        "start_date": "2014/12/01"
      },
      "geometry": {
        "type": "Point",
        "coordinates": [
          138.37668,
          34.941274
        ]
      }
    },
    {
      "type": "Feature",
      "properties": {
        "#": "147",
        "name": "こぐまこどもクリニック",
        "address1": "駿河区国吉田5-13-1",
        "address2": "",
        " 開設者": "医療法人社団　こぐま",
        " 管理者": "早川聡",
        "start_date": "2004/01/01"
      },
      "geometry": {
        "type": "Point",
        "coordinates": [
          138.433382,
          34.991428
        ]
      }
    },
    {
      "type": "Feature",
      "properties": {
        "#": "30",
        "name": "こころとからだのクリニック　あおいクリニック",
        "address1": "葵区昭和町１番地の６",
        "address2": "サンフォレスト静岡昭和町ビル５階",
        " 開設者": "医療法人社団　明光会",
        " 管理者": "寺田　治子",
        "start_date": "2006/06/01"
      },
      "geometry": {
        "type": "Point",
        "coordinates": [
          138.383946,
          34.972063
        ]
      }
    },
    {
      "type": "Feature",
      "properties": {
        "#": "28",
        "name": "こじまクリニック内科・循環器科",
        "address1": "葵区沓谷五丁目12番地の７",
        "address2": "",
        " 開設者": "医療法人社団　千諒会",
        " 管理者": "小島　春紀",
        "start_date": "2006/01/01"
      },
      "geometry": {
        "type": "Point",
        "coordinates": [
          138.41304,
          34.997783
        ]
      }
    },
    {
      "type": "Feature",
      "properties": {
        "#": "148",
        "name": "ごんクリニック",
        "address1": "駿河区高松二丁目５番18号",
        "address2": "",
        " 開設者": "権　永鉄",
        " 管理者": "権　永鉄",
        "start_date": "2003/04/04"
      },
      "geometry": {
        "type": "Point",
        "coordinates": [
          138.420837,
          34.953868
        ]
      }
    },
    {
      "type": "Feature",
      "properties": {
        "#": "150",
        "name": "こんどうクリニック",
        "address1": "駿河区下島324　平瓮ビル　パートⅠ　101号",
        "address2": "",
        " 開設者": "近藤大造",
        " 管理者": "近藤大造",
        "start_date": "2003/11/05"
      },
      "geometry": {
        "type": "Point",
        "coordinates": [
          138.41053,
          34.948205
        ]
      }
    },
    {
      "type": "Feature",
      "properties": {
        "#": "151",
        "name": "さかくらクリニック",
        "address1": "駿河区南町14番25号　ｴｽﾊﾟﾃｨｵ２階201-D号室",
        "address2": "",
        " 開設者": "医療法人社団　泰洋会",
        " 管理者": "阪倉　洋",
        "start_date": "2014/11/01"
      },
      "geometry": {
        "type": "Point",
        "coordinates": [
          138.390626,
          34.970554
        ]
      }
    },
    {
      "type": "Feature",
      "properties": {
        "#": "34",
        "name": "さそう内科・呼吸器科クリニック",
        "address1": "葵区大鋸町２番５号",
        "address2": "",
        " 開設者": "医療法人社団　さそうクリニック",
        " 管理者": "佐宗　春美",
        "start_date": "2006/04/01"
      },
      "geometry": {
        "type": "Point",
        "coordinates": [
          138.37561,
          34.972782
        ]
      }
    },
    {
      "type": "Feature",
      "properties": {
        "#": "37",
        "name": "しずおか葵の森クリニック",
        "address1": "葵区柳町１９３－１",
        "address2": "",
        " 開設者": "古川　敬芳",
        " 管理者": "古川　敬芳",
        "start_date": "2009/04/17"
      },
      "geometry": {
        "type": "Point",
        "coordinates": [
          138.363414,
          34.979414
        ]
      }
    },
    {
      "type": "Feature",
      "properties": {
        "#": "50",
        "name": "しば内科医院",
        "address1": "葵区伝馬町8-1 サンローゼ６Ｆ",
        "address2": "",
        " 開設者": "柴　千佳子",
        " 管理者": "柴　千佳子",
        "start_date": "1984/02/01"
      },
      "geometry": {
        "type": "Point",
        "coordinates": [
          138.387049,
          34.97486
        ]
      }
    },
    {
      "type": "Feature",
      "properties": {
        "#": "238",
        "name": "しぶかわ内科クリニック",
        "address1": "清水区渋川三丁目１０番１７号",
        "address2": "",
        " 開設者": "医療法人社団　泰成会",
        " 管理者": "薬師川　融",
        "start_date": "2007/01/01"
      },
      "geometry": {
        "type": "Point",
        "coordinates": [
          138.467365,
          35.019656
        ]
      }
    },
    {
      "type": "Feature",
      "properties": {
        "#": "239",
        "name": "しみず巴クリニック",
        "address1": "清水区千歳町２番30号",
        "address2": "",
        " 開設者": "医療法人社団　博仁会",
        " 管理者": "宮地　武彦",
        "start_date": "2013/06/15"
      },
      "geometry": {
        "type": "Point",
        "coordinates": [
          138.483808,
          35.015337
        ]
      }
    },
    {
      "type": "Feature",
      "properties": {
        "#": "59",
        "name": "しらいわ医院",
        "address1": "葵区安東二丁目８番14号",
        "address2": "",
        " 開設者": "医療法人社団香会",
        " 管理者": "白岩紀久男",
        "start_date": "2006/09/01"
      },
      "geometry": {
        "type": "Point",
        "coordinates": [
          138.385628,
          34.98761
        ]
      }
    },
    {
      "type": "Feature",
      "properties": {
        "#": "66",
        "name": "すながわこどもクリニック",
        "address1": "葵区井宮町103-1",
        "address2": "",
        " 開設者": "医療法人社団　かもっ子クラブ",
        " 管理者": "砂川佳昭",
        "start_date": "2003/08/01"
      },
      "geometry": {
        "type": "Point",
        "coordinates": [
          138.370366,
          34.986655
        ]
      }
    },
    {
      "type": "Feature",
      "properties": {
        "#": "245",
        "name": "するがクリニック",
        "address1": "清水区庄福町９番23号",
        "address2": "",
        " 開設者": "医療法人社団梨慶会",
        " 管理者": "山内　晃",
        "start_date": "2010/04/01"
      },
      "geometry": {
        "type": "Point",
        "coordinates": [
          138.478823,
          34.998697
        ]
      }
    },
    {
      "type": "Feature",
      "properties": {
        "#": "253",
        "name": "たむら整形外科",
        "address1": "清水区庄福町９番15号",
        "address2": "",
        " 開設者": "田村　晋",
        " 管理者": "田村　晋",
        "start_date": "2014/05/01"
      },
      "geometry": {
        "type": "Point",
        "coordinates": [
          138.478559,
          34.998628
        ]
      }
    },
    {
      "type": "Feature",
      "properties": {
        "#": "169",
        "name": "たんぽぽ診療所",
        "address1": "駿河区中吉田26番16号",
        "address2": "",
        " 開設者": "医療法人社団　めぐみ",
        " 管理者": "遠藤　博之",
        "start_date": "2007/07/01"
      },
      "geometry": {
        "type": "Point",
        "coordinates": [
          138.436679,
          34.998499
        ]
      }
    },
    {
      "type": "Feature",
      "properties": {
        "#": "72",
        "name": "つどいのおかクリニック",
        "address1": "葵区本通西町39番地",
        "address2": "",
        " 開設者": "医療法人社団　盈進会",
        " 管理者": "岡　愼一郎",
        "start_date": "2014/04/01"
      },
      "geometry": {
        "type": "Point",
        "coordinates": [
          138.372784,
          34.941777
        ]
      }
    },
    {
      "type": "Feature",
      "properties": {
        "#": "73",
        "name": "てらむらクリニック",
        "address1": "葵区千代田六丁目３０番１３号",
        "address2": "",
        " 開設者": "医療法人社団　てらむらクリニック",
        " 管理者": "寺村　淳",
        "start_date": "1989/06/01"
      },
      "geometry": {
        "type": "Point",
        "coordinates": [
          138.408109,
          34.999601
        ]
      }
    },
    {
      "type": "Feature",
      "properties": {
        "#": "75",
        "name": "ときわ公園クリニック",
        "address1": "葵区常磐町三丁目６番14号",
        "address2": "",
        " 開設者": "医療法人社団　トキワヒルズクリニック",
        " 管理者": "生野　雅史",
        "start_date": "2010/07/05"
      },
      "geometry": {
        "type": "Point",
        "coordinates": [
          138.379651,
          34.969644
        ]
      }
    },
    {
      "type": "Feature",
      "properties": {
        "#": "76",
        "name": "ともの整形外科クリニック",
        "address1": "葵区上土一丁目１番71号",
        "address2": "",
        " 開設者": "医療法人社団ともの",
        " 管理者": "伴野　健太",
        "start_date": "2012/12/01"
      },
      "geometry": {
        "type": "Point",
        "coordinates": [
          138.415333,
          34.999301
        ]
      }
    },
    {
      "type": "Feature",
      "properties": {
        "#": "172",
        "name": "とやまクリニック",
        "address1": "駿河区東新田三丁目32番９号",
        "address2": "",
        " 開設者": "医療法人社団ヴィレ",
        " 管理者": "外山　英志",
        "start_date": "2021/04/01"
      },
      "geometry": {
        "type": "Point",
        "coordinates": [
          138.374366,
          34.944959
        ]
      }
    },
    {
      "type": "Feature",
      "properties": {
        "#": "257",
        "name": "ないとう内科・循環器内科",
        "address1": "清水区押切2380番地",
        "address2": "",
        " 開設者": "医療法人社団高部会",
        " 管理者": "倉部　崇",
        "start_date": "2016/10/01"
      },
      "geometry": {
        "type": "Point",
        "coordinates": [
          138.452177,
          35.031826
        ]
      }
    },
    {
      "type": "Feature",
      "properties": {
        "#": "258",
        "name": "なないろあかちゃんこどもクリニック",
        "address1": "清水区南矢部520番地の１",
        "address2": "",
        " 開設者": "後藤　孝匡",
        " 管理者": "後藤　孝匡",
        "start_date": "2019/06/01"
      },
      "geometry": {
        "type": "Point",
        "coordinates": [
          138.477292,
          34.998151
        ]
      }
    },
    {
      "type": "Feature",
      "properties": {
        "#": "82",
        "name": "のの村耳鼻咽喉科クリニック",
        "address1": "葵区若松町98－1",
        "address2": "",
        " 開設者": "医療法人社団　のの村",
        " 管理者": "野々村光栄",
        "start_date": "2005/01/01"
      },
      "geometry": {
        "type": "Point",
        "coordinates": [
          138.366564,
          34.983014
        ]
      }
    },
    {
      "type": "Feature",
      "properties": {
        "#": "86",
        "name": "はとりこどもクリニック",
        "address1": "葵区山崎一丁目26番地の４",
        "address2": "",
        " 開設者": "医療法人社団ひよこ会",
        " 管理者": "水野　恵介",
        "start_date": "2019/01/01"
      },
      "geometry": {
        "type": "Point",
        "coordinates": [
          138.408921,
          34.969073
        ]
      }
    },
    {
      "type": "Feature",
      "properties": {
        "#": "88",
        "name": "ひびのクリニック",
        "address1": "葵区大岩本町25番15号",
        "address2": "",
        " 開設者": "日比野正幸",
        " 管理者": "日比野正幸",
        "start_date": "2015/11/11"
      },
      "geometry": {
        "type": "Point",
        "coordinates": [
          138.377297,
          34.987515
        ]
      }
    },
    {
      "type": "Feature",
      "properties": {
        "#": "181",
        "name": "ふかさわ消化器科・内科",
        "address1": "駿河区中原502番地の２",
        "address2": "",
        " 開設者": "医療法人社団　F・T・Y",
        " 管理者": "深沢　智基",
        "start_date": "2010/10/01"
      },
      "geometry": {
        "type": "Point",
        "coordinates": [
          138.388551,
          34.954945
        ]
      }
    },
    {
      "type": "Feature",
      "properties": {
        "#": "90",
        "name": "ふるかわ北安東クリニック",
        "address1": "葵区北安東四丁目５番32号",
        "address2": "",
        " 開設者": "医療法人社団　葵メディカル",
        " 管理者": "古川　憲一",
        "start_date": "2007/04/01"
      },
      "geometry": {
        "type": "Point",
        "coordinates": [
          138.390122,
          35.002009
        ]
      }
    },
    {
      "type": "Feature",
      "properties": {
        "#": "182",
        "name": "プルメリア糖尿病内科クリニック",
        "address1": "駿河区曲金六丁目８番35号　ＥＳＭビル３Ｆ",
        "address2": "",
        " 開設者": "医療法人社団プルメリア",
        " 管理者": "平澤　陽子",
        "start_date": "2018/04/01"
      },
      "geometry": {
        "type": "Point",
        "coordinates": [
          138.416207,
          34.983437
        ]
      }
    },
    {
      "type": "Feature",
      "properties": {
        "#": "185",
        "name": "ほんまファミリークリニック",
        "address1": "駿河区石田三丁目12番30号",
        "address2": "",
        " 開設者": "本間　博臣",
        " 管理者": "本間　博臣",
        "start_date": "2019/01/16"
      },
      "geometry": {
        "type": "Point",
        "coordinates": [
          138.399049,
          34.956688
        ]
      }
    },
    {
      "type": "Feature",
      "properties": {
        "#": "92",
        "name": "マイクリニック大久保",
        "address1": "葵区川合2-1-20",
        "address2": "",
        " 開設者": "医療法人社団眞生会",
        " 管理者": "大久保　雅之",
        "start_date": ""
      },
      "geometry": {
        "type": "Point",
        "coordinates": [
          138.415792,
          35.002559
        ]
      }
    },
    {
      "type": "Feature",
      "properties": {
        "#": "95",
        "name": "まつだクリニック",
        "address1": "葵区北番町78番地の４",
        "address2": "",
        " 開設者": "医療法人社団医忠会",
        " 管理者": "松田　忠久",
        "start_date": "2007/01/01"
      },
      "geometry": {
        "type": "Point",
        "coordinates": [
          138.369909,
          34.979696
        ]
      }
    },
    {
      "type": "Feature",
      "properties": {
        "#": "97",
        "name": "まつとみクリニック",
        "address1": "葵区上伝馬23番18号",
        "address2": "",
        " 開設者": "医療法人社団　松英会",
        " 管理者": "朝来野　弦",
        "start_date": "2009/05/01"
      },
      "geometry": {
        "type": "Point",
        "coordinates": [
          138.372693,
          35.011277
        ]
      }
    },
    {
      "type": "Feature",
      "properties": {
        "#": "190",
        "name": "みずほ・おおいしクリニック",
        "address1": "駿河区みずほ二丁目５番地の26",
        "address2": "",
        " 開設者": "大石　真広",
        " 管理者": "大石　真広",
        "start_date": "2015/08/01"
      },
      "geometry": {
        "type": "Point",
        "coordinates": [
          138.37045,
          34.939852
        ]
      }
    },
    {
      "type": "Feature",
      "properties": {
        "#": "191",
        "name": "みずほ腎クリニック",
        "address1": "駿河区みずほ二丁目18番地の１",
        "address2": "",
        " 開設者": "医療法人社団　泰成会",
        " 管理者": "藤田　章二",
        "start_date": "2014/03/17"
      },
      "geometry": {
        "type": "Point",
        "coordinates": [
          138.366944,
          34.939853
        ]
      }
    },
    {
      "type": "Feature",
      "properties": {
        "#": "102",
        "name": "みたけ内科循環器科クリニック",
        "address1": "葵区東鷹匠町4-10",
        "address2": "",
        " 開設者": "医療法人社団医啓会",
        " 管理者": "三竹啓敏",
        "start_date": "2004/05/01"
      },
      "geometry": {
        "type": "Point",
        "coordinates": [
          138.391231,
          34.981622
        ]
      }
    },
    {
      "type": "Feature",
      "properties": {
        "#": "103",
        "name": "みどりのふきたクリニック",
        "address1": "葵区大岩町４番23号",
        "address2": "",
        " 開設者": "医療法人社団　グリーンハート",
        " 管理者": "吹田　浩之",
        "start_date": "2007/04/01"
      },
      "geometry": {
        "type": "Point",
        "coordinates": [
          138.378909,
          34.994132
        ]
      }
    },
    {
      "type": "Feature",
      "properties": {
        "#": "109",
        "name": "もちづき整形外科",
        "address1": "葵区沓谷4-1-39",
        "address2": "",
        " 開設者": "医療法人社団沓谷もちづき整形外科",
        " 管理者": "望月　久司",
        "start_date": ""
      },
      "geometry": {
        "type": "Point",
        "coordinates": [
          138.404423,
          34.993935
        ]
      }
    },
    {
      "type": "Feature",
      "properties": {
        "#": "195",
        "name": "もりもりキッズ・アレルギークリニック",
        "address1": "駿河区下川原五丁目18番33号",
        "address2": "",
        " 開設者": "森下　雄大",
        " 管理者": "森下　雄大",
        "start_date": "2020/08/03"
      },
      "geometry": {
        "type": "Point",
        "coordinates": [
          138.37959,
          34.936641
        ]
      }
    },
    {
      "type": "Feature",
      "properties": {
        "#": "196",
        "name": "やはた内科・循環器内科",
        "address1": "駿河区八幡四丁目７－21",
        "address2": "",
        " 開設者": "鈴木　喜之",
        " 管理者": "鈴木　喜之",
        "start_date": "2009/01/19"
      },
      "geometry": {
        "type": "Point",
        "coordinates": [
          138.398644,
          34.966727
        ]
      }
    },
    {
      "type": "Feature",
      "properties": {
        "#": "274",
        "name": "やまだメディカルクリニック",
        "address1": "清水区江尻町９番１２号",
        "address2": "",
        " 開設者": "医療法人社団　ゆうかり会",
        " 管理者": "山田　和人",
        "start_date": "2007/07/01"
      },
      "geometry": {
        "type": "Point",
        "coordinates": [
          138.482158,
          35.020592
        ]
      }
    },
    {
      "type": "Feature",
      "properties": {
        "#": "117",
        "name": "ゆずの木町内科・循環器科",
        "address1": "葵区柚木町２番地",
        "address2": "",
        " 開設者": "小長井　英生",
        " 管理者": "小長井　英生",
        "start_date": "2006/09/20"
      },
      "geometry": {
        "type": "Point",
        "coordinates": [
          138.372863,
          34.978911
        ]
      }
    },
    {
      "type": "Feature",
      "properties": {
        "#": "122",
        "name": "レディースクリニック古川",
        "address1": "葵区安東三丁目10番５号",
        "address2": "",
        " 開設者": "医療法人社団　雄栄会",
        " 管理者": "古川　雄一",
        "start_date": "2007/04/01"
      },
      "geometry": {
        "type": "Point",
        "coordinates": [
          138.385609,
          34.990766
        ]
      }
    },
    {
      "type": "Feature",
      "properties": {
        "#": "200",
        "name": "わたなべクリニック",
        "address1": "駿河区南町６番16-104号",
        "address2": "",
        " 開設者": "医療法人社団わたなべクリニック",
        " 管理者": "渡邉憲治",
        "start_date": "1999/08/01"
      },
      "geometry": {
        "type": "Point",
        "coordinates": [
          138.389187,
          34.969552
        ]
      }
    },
    {
      "type": "Feature",
      "properties": {
        "#": "277",
        "name": "わたなべ小児科クリニック",
        "address1": "清水区木の下町67",
        "address2": "",
        " 開設者": "渡邉 剛史",
        " 管理者": "渡邉　剛史",
        "start_date": "1999/11/01"
      },
      "geometry": {
        "type": "Point",
        "coordinates": [
          138.47011,
          35.005146
        ]
      }
    },
    {
      "type": "Feature",
      "properties": {
        "#": "4",
        "name": "伊藤医院",
        "address1": "葵区梅屋町１番地の７",
        "address2": "",
        " 開設者": "医療法人社団聴声会",
        " 管理者": "伊藤　靖郎",
        "start_date": "2007/04/01"
      },
      "geometry": {
        "type": "Point",
        "coordinates": [
          138.378074,
          34.972848
        ]
      }
    },
    {
      "type": "Feature",
      "properties": {
        "#": "211",
        "name": "伊藤医院",
        "address1": "清水区平川地１７番３８号",
        "address2": "",
        " 開設者": "医療法人社団　清源会",
        " 管理者": "伊藤　保源",
        "start_date": "2014/04/01"
      },
      "geometry": {
        "type": "Point",
        "coordinates": [
          138.460663,
          35.010113
        ]
      }
    },
    {
      "type": "Feature",
      "properties": {
        "#": "40",
        "name": "医療法人社団　広域白報会　しずおか在宅診療所",
        "address1": "葵区栄町３番地の１",
        "address2": "あいおいニッセイ同和損保静岡第一ビル８階",
        " 開設者": "医療法人社団　広域白報会",
        " 管理者": "北野　満",
        "start_date": "2017/10/01"
      },
      "geometry": {
        "type": "Point",
        "coordinates": [
          138.391903,
          34.974329
        ]
      }
    },
    {
      "type": "Feature",
      "properties": {
        "#": "11",
        "name": "医療法人社団　翔未会　追手町クリニック",
        "address1": "葵区呉服町一丁目30番地",
        "address2": "札の辻クロス７階",
        " 開設者": "医療法人社団　翔未会",
        " 管理者": "在原　和夫",
        "start_date": "2019/04/01"
      },
      "geometry": {
        "type": "Point",
        "coordinates": [
          138.37939,
          34.97589
        ]
      }
    },
    {
      "type": "Feature",
      "properties": {
        "#": "124",
        "name": "医療法人社団健森会　あうるクリニック東海",
        "address1": "駿河区みずほ五丁目３番地の１",
        "address2": "",
        " 開設者": "医療法人社団　健森会",
        " 管理者": "河内　由布子",
        "start_date": "2016/04/01"
      },
      "geometry": {
        "type": "Point",
        "coordinates": [
          138.366587,
          34.938546
        ]
      }
    },
    {
      "type": "Feature",
      "properties": {
        "#": "38",
        "name": "医療法人社団健正会　静岡アオイ病院",
        "address1": "葵区吉津１９０番地の１",
        "address2": "",
        " 開設者": "医療法人社団健正会",
        " 管理者": "山本　修三",
        "start_date": "1998/04/01"
      },
      "geometry": {
        "type": "Point",
        "coordinates": [
          138.309039,
          34.979741
        ]
      }
    },
    {
      "type": "Feature",
      "properties": {
        "#": "266",
        "name": "医療法人社団兼寿会　松下医院",
        "address1": "清水区但沼町1317番地の２",
        "address2": "",
        " 開設者": "医療法人社団　兼寿会",
        " 管理者": "松下　兼昭",
        "start_date": "2011/10/19"
      },
      "geometry": {
        "type": "Point",
        "coordinates": [
          138.513339,
          35.096492
        ]
      }
    },
    {
      "type": "Feature",
      "properties": {
        "#": "183",
        "name": "医療法人社団孝寿会ふれあいクリニック",
        "address1": "駿河区東新田一丁目１番33号",
        "address2": "",
        " 開設者": "医療法人社団孝寿会　",
        " 管理者": "村松　正行",
        "start_date": "2018/01/01"
      },
      "geometry": {
        "type": "Point",
        "coordinates": [
          138.370221,
          34.952924
        ]
      }
    },
    {
      "type": "Feature",
      "properties": {
        "#": "106",
        "name": "医療法人社団若葉会宮下医院",
        "address1": "葵区羽鳥一丁目７番13号",
        "address2": "",
        " 開設者": "医療法人社団　若葉会宮下医院",
        " 管理者": "宮下裕三",
        "start_date": "1999/10/04"
      },
      "geometry": {
        "type": "Point",
        "coordinates": [
          138.345263,
          34.979994
        ]
      }
    },
    {
      "type": "Feature",
      "properties": {
        "#": "47",
        "name": "医療法人社団清明会　静岡リハビリテーション病院",
        "address1": "葵区富沢１４０５番地",
        "address2": "",
        " 開設者": "医療法人社団清明会",
        " 管理者": "小嶋　康則",
        "start_date": "1997/06/01"
      },
      "geometry": {
        "type": "Point",
        "coordinates": [
          138.25647,
          35.022875
        ]
      }
    },
    {
      "type": "Feature",
      "properties": {
        "#": "143",
        "name": "医療法人社団宝徳会　小鹿病院",
        "address1": "駿河区小鹿１６３３番地の１",
        "address2": "",
        " 開設者": "医療法人社団宝徳会",
        " 管理者": "中村　拓郎",
        "start_date": "1997/04/01"
      },
      "geometry": {
        "type": "Point",
        "coordinates": [
          138.433777,
          34.975955
        ]
      }
    },
    {
      "type": "Feature",
      "properties": {
        "#": "260",
        "name": "医療法人清仁会　日本平病院",
        "address1": "清水区駒越２３５９番地の２４",
        "address2": "",
        " 開設者": "医療法人清仁会",
        " 管理者": "加藤　亮太",
        "start_date": "1970/11/01"
      },
      "geometry": {
        "type": "Point",
        "coordinates": [
          138.479948,
          34.975966
        ]
      }
    },
    {
      "type": "Feature",
      "properties": {
        "#": "171",
        "name": "医療法人福恵会　東新田福地診療院",
        "address1": "駿河区東新田五丁目16番10号",
        "address2": "",
        " 開設者": "医療法人財団　福恵会",
        " 管理者": "福地康紀",
        "start_date": ""
      },
      "geometry": {
        "type": "Point",
        "coordinates": [
          138.372722,
          34.941774
        ]
      }
    },
    {
      "type": "Feature",
      "properties": {
        "#": "209",
        "name": "磯貝医院",
        "address1": "清水区草薙1丁目15-23",
        "address2": "",
        " 開設者": "室井　正彦",
        " 管理者": "室井　正彦",
        "start_date": "1993/04/01"
      },
      "geometry": {
        "type": "Point",
        "coordinates": [
          138.442818,
          35.001283
        ]
      }
    },
    {
      "type": "Feature",
      "properties": {
        "#": "216",
        "name": "浦島クリニックくすのき",
        "address1": "清水区楠新田281番地の1",
        "address2": "",
        " 開設者": "医療法人社団　マイルストーン",
        " 管理者": "松尾　陽子",
        "start_date": "2017/10/12"
      },
      "geometry": {
        "type": "Point",
        "coordinates": [
          138.443843,
          35.00879
        ]
      }
    },
    {
      "type": "Feature",
      "properties": {
        "#": "215",
        "name": "浦島クリニック新院",
        "address1": "清水区押切１４５６番地",
        "address2": "",
        " 開設者": "医療法人社団マイルストーン",
        " 管理者": "浦島　哲郎",
        "start_date": "2020/12/17"
      },
      "geometry": {
        "type": "Point",
        "coordinates": [
          138.456224,
          35.02851
        ]
      }
    },
    {
      "type": "Feature",
      "properties": {
        "#": "217",
        "name": "浦島メディカルクリニック",
        "address1": "清水区押切1620番地",
        "address2": "",
        " 開設者": "医療法人社団　マイルストーン",
        " 管理者": "岩下　力",
        "start_date": "2008/09/01"
      },
      "geometry": {
        "type": "Point",
        "coordinates": [
          138.45498,
          35.029682
        ]
      }
    },
    {
      "type": "Feature",
      "properties": {
        "#": "256",
        "name": "遠山内科医院",
        "address1": "清水区万世町1丁目3-25",
        "address2": "",
        " 開設者": "遠山　泰",
        " 管理者": "遠山　泰",
        "start_date": "1990/06/01"
      },
      "geometry": {
        "type": "Point",
        "coordinates": [
          138.487263,
          35.011813
        ]
      }
    },
    {
      "type": "Feature",
      "properties": {
        "#": "153",
        "name": "塩川八幡ヒルズクリニック",
        "address1": "駿河区八幡五丁目32番10号",
        "address2": "",
        " 開設者": "医療法人社団　サーレ",
        " 管理者": "塩川　和彦",
        "start_date": "2007/01/01"
      },
      "geometry": {
        "type": "Point",
        "coordinates": [
          138.40396,
          34.968374
        ]
      }
    },
    {
      "type": "Feature",
      "properties": {
        "#": "118",
        "name": "横山内科循環器科医院",
        "address1": "葵区幸町25番地の3",
        "address2": "",
        " 開設者": "医療法人社団　かりゆし",
        " 管理者": "横山　正一",
        "start_date": ""
      },
      "geometry": {
        "type": "Point",
        "coordinates": [
          138.370791,
          34.96663
        ]
      }
    },
    {
      "type": "Feature",
      "properties": {
        "#": "20",
        "name": "鎌田医院",
        "address1": "葵区羽鳥六丁目３－21",
        "address2": "",
        " 開設者": "鎌田　光裕",
        " 管理者": "鎌田　光裕",
        "start_date": ""
      },
      "geometry": {
        "type": "Point",
        "coordinates": [
          138.33533,
          34.983466
        ]
      }
    },
    {
      "type": "Feature",
      "properties": {
        "#": "212",
        "name": "乾医院",
        "address1": "清水区西久保一丁目６番22号",
        "address2": "",
        " 開設者": "医療法人社団　真和会　乾医院",
        " 管理者": "乾　哲也",
        "start_date": "1989/11/01"
      },
      "geometry": {
        "type": "Point",
        "coordinates": [
          138.482755,
          35.032216
        ]
      }
    },
    {
      "type": "Feature",
      "properties": {
        "#": "133",
        "name": "岩はし内科医院",
        "address1": "駿河区丸子一丁目６番22号",
        "address2": "",
        " 開設者": "医療法人社団　宏生会岩はし内科医院",
        " 管理者": "岩橋　昌雄",
        "start_date": "2019/08/19"
      },
      "geometry": {
        "type": "Point",
        "coordinates": [
          138.357654,
          34.944973
        ]
      }
    },
    {
      "type": "Feature",
      "properties": {
        "#": "276",
        "name": "吉永医院",
        "address1": "清水区江尻東一丁目１番38号",
        "address2": "",
        " 開設者": "医療法人社団　永仁会",
        " 管理者": "吉永　治彦",
        "start_date": "1989/07/01"
      },
      "geometry": {
        "type": "Point",
        "coordinates": [
          138.486777,
          35.023361
        ]
      }
    },
    {
      "type": "Feature",
      "properties": {
        "#": "119",
        "name": "吉岡菊川耳鼻咽喉科医院",
        "address1": "葵区上土二丁目７番37号",
        "address2": "",
        " 開設者": "医療法人社団　福聚会",
        " 管理者": "菊川達雄",
        "start_date": ""
      },
      "geometry": {
        "type": "Point",
        "coordinates": [
          138.415728,
          35.002281
        ]
      }
    },
    {
      "type": "Feature",
      "properties": {
        "#": "120",
        "name": "吉川医院",
        "address1": "葵区竜南一丁目14番31号",
        "address2": "",
        " 開設者": "医療法人社団桜林会",
        " 管理者": "吉川　俊之",
        "start_date": "2019/12/01"
      },
      "geometry": {
        "type": "Point",
        "coordinates": [
          138.398521,
          34.998698
        ]
      }
    },
    {
      "type": "Feature",
      "properties": {
        "#": "107",
        "name": "宮下内科クリニック",
        "address1": "葵区呉服町二丁目３番地の１、２階・３階",
        "address2": "",
        " 開設者": "医療法人社団　慶真会",
        " 管理者": "宮下　豊",
        "start_date": "2016/05/01"
      },
      "geometry": {
        "type": "Point",
        "coordinates": [
          138.382952,
          34.974128
        ]
      }
    },
    {
      "type": "Feature",
      "properties": {
        "#": "104",
        "name": "宮城島耳鼻咽喉科医院",
        "address1": "葵区上足洗二丁目７－８",
        "address2": "",
        " 開設者": "宮城島　正和",
        " 管理者": "宮城島　正和",
        "start_date": "2008/08/20"
      },
      "geometry": {
        "type": "Point",
        "coordinates": [
          138.390761,
          34.99466
        ]
      }
    },
    {
      "type": "Feature",
      "properties": {
        "#": "105",
        "name": "宮城島内科医院",
        "address1": "葵区唐瀬一丁目２番27号",
        "address2": "",
        " 開設者": "医療法人社団　慈善会",
        " 管理者": "宮城島　賢二",
        "start_date": ""
      },
      "geometry": {
        "type": "Point",
        "coordinates": [
          138.385389,
          35.007963
        ]
      }
    },
    {
      "type": "Feature",
      "properties": {
        "#": "271",
        "name": "宮地医院",
        "address1": "清水区下野西7-7",
        "address2": "",
        " 開設者": "医療法人社団　博仁会",
        " 管理者": "宮地　邦彦",
        "start_date": "1990/10/01"
      },
      "geometry": {
        "type": "Point",
        "coordinates": [
          138.466115,
          35.036237
        ]
      }
    },
    {
      "type": "Feature",
      "properties": {
        "#": "192",
        "name": "宮田医院",
        "address1": "駿河区国吉田4-24-17",
        "address2": "",
        " 開設者": "医療法人社団　芳月会",
        " 管理者": "宮田　潤一",
        "start_date": "2002/01/01"
      },
      "geometry": {
        "type": "Point",
        "coordinates": [
          138.434038,
          34.992403
        ]
      }
    },
    {
      "type": "Feature",
      "properties": {
        "#": "71",
        "name": "玉川診療所",
        "address1": "葵区落合243番地の６",
        "address2": "",
        " 開設者": "大杉　直",
        " 管理者": "大杉　直",
        "start_date": "2010/10/01"
      },
      "geometry": {
        "type": "Point",
        "coordinates": [
          138.330989,
          35.110565
        ]
      }
    },
    {
      "type": "Feature",
      "properties": {
        "#": "149",
        "name": "近藤医院",
        "address1": "駿河区手越310番地",
        "address2": "",
        " 開設者": "医療法人社団陽会",
        " 管理者": "近藤　泰",
        "start_date": "1990/05/01"
      },
      "geometry": {
        "type": "Point",
        "coordinates": [
          138.36362,
          34.953903
        ]
      }
    },
    {
      "type": "Feature",
      "properties": {
        "#": "27",
        "name": "栗山医院　内科・皮膚科",
        "address1": "葵区瀬名川1-23-28",
        "address2": "",
        " 開設者": "栗山洋一",
        " 管理者": "栗山洋一",
        "start_date": ""
      },
      "geometry": {
        "type": "Point",
        "coordinates": [
          138.42463,
          35.004056
        ]
      }
    },
    {
      "type": "Feature",
      "properties": {
        "#": "176",
        "name": "原田医院",
        "address1": "駿河区中村町73番地の12",
        "address2": "",
        " 開設者": "医療法人社団Ｌ",
        " 管理者": "原田　昌樹",
        "start_date": "2012/10/01"
      },
      "geometry": {
        "type": "Point",
        "coordinates": [
          138.392745,
          34.954623
        ]
      }
    },
    {
      "type": "Feature",
      "properties": {
        "#": "177",
        "name": "原田整形外科",
        "address1": "駿河区丸子六丁目１番10号",
        "address2": "",
        " 開設者": "医療法人社団　S・F・S",
        " 管理者": "原田　富夫",
        "start_date": "2011/11/01"
      },
      "geometry": {
        "type": "Point",
        "coordinates": [
          138.351258,
          34.947743
        ]
      }
    },
    {
      "type": "Feature",
      "properties": {
        "#": "91",
        "name": "古庄わかばクリニック",
        "address1": "葵区古庄五丁目３番21号",
        "address2": "",
        " 開設者": "一般財団法人　福祉医療推進事業団",
        " 管理者": "滝澤　明憲",
        "start_date": "2016/06/06"
      },
      "geometry": {
        "type": "Point",
        "coordinates": [
          138.417161,
          34.998179
        ]
      }
    },
    {
      "type": "Feature",
      "properties": {
        "#": "83",
        "name": "袴田外科医院",
        "address1": "葵区籠上13番20号",
        "address2": "",
        " 開設者": "医療法人社団　篭上袴田外科医院",
        " 管理者": "袴田光治",
        "start_date": "1989/01/01"
      },
      "geometry": {
        "type": "Point",
        "coordinates": [
          138.36841,
          34.992807
        ]
      }
    },
    {
      "type": "Feature",
      "properties": {
        "#": "208",
        "name": "五十嵐医院",
        "address1": "清水区蒲原三丁目11番13号",
        "address2": "",
        " 開設者": "医療法人社団　啓心会",
        " 管理者": "五十嵐　直人",
        "start_date": "1993/08/02"
      },
      "geometry": {
        "type": "Point",
        "coordinates": [
          138.601703,
          35.118577
        ]
      }
    },
    {
      "type": "Feature",
      "properties": {
        "#": "29",
        "name": "呉服町土屋内科",
        "address1": "葵区呉服町一丁目１-１４呉服町圭田ビル６",
        "address2": "",
        " 開設者": "土屋　厚",
        " 管理者": "土屋　厚",
        "start_date": "2004/04/20"
      },
      "geometry": {
        "type": "Point",
        "coordinates": [
          138.379577,
          34.975975
        ]
      }
    },
    {
      "type": "Feature",
      "properties": {
        "#": "272",
        "name": "向井内科循環器科クリニック",
        "address1": "清水区草薙一丁目１０－１２",
        "address2": "",
        " 開設者": "向井　英之",
        " 管理者": "向井　英之",
        "start_date": "1991/07/17"
      },
      "geometry": {
        "type": "Point",
        "coordinates": [
          138.443387,
          35.002905
        ]
      }
    },
    {
      "type": "Feature",
      "properties": {
        "#": "180",
        "name": "広野クリニック",
        "address1": "駿河区広野1494番地の８",
        "address2": "",
        " 開設者": "医療法人社団恒仁会",
        " 管理者": "田宮　健",
        "start_date": "2019/10/01"
      },
      "geometry": {
        "type": "Point",
        "coordinates": [
          138.37662,
          34.928102
        ]
      }
    },
    {
      "type": "Feature",
      "properties": {
        "#": "219",
        "name": "江尻東クリニック",
        "address1": "清水区江尻東三丁目８番18号",
        "address2": "",
        " 開設者": "袴田　安彦",
        " 管理者": "袴田　安彦",
        "start_date": "2011/09/01"
      },
      "geometry": {
        "type": "Point",
        "coordinates": [
          138.485852,
          35.019609
        ]
      }
    },
    {
      "type": "Feature",
      "properties": {
        "#": "10",
        "name": "江良医院",
        "address1": "葵区岳美2-13",
        "address2": "",
        " 開設者": "医療法人社団　岳陽会",
        " 管理者": "江良建",
        "start_date": "1989/01/01"
      },
      "geometry": {
        "type": "Point",
        "coordinates": [
          138.387802,
          35.007966
        ]
      }
    },
    {
      "type": "Feature",
      "properties": {
        "#": "100",
        "name": "溝口クリニック",
        "address1": "葵区古庄2-15-26",
        "address2": "",
        " 開設者": "溝口修身",
        " 管理者": "溝口修身",
        "start_date": ""
      },
      "geometry": {
        "type": "Point",
        "coordinates": [
          138.422902,
          34.997407
        ]
      }
    },
    {
      "type": "Feature",
      "properties": {
        "#": "101",
        "name": "溝口病院",
        "address1": "葵区長沼６４７番地",
        "address2": "",
        " 開設者": "医療法人社団リラ",
        " 管理者": "寺田　修",
        "start_date": "1999/04/01"
      },
      "geometry": {
        "type": "Point",
        "coordinates": [
          138.413179,
          34.988333
        ]
      }
    },
    {
      "type": "Feature",
      "properties": {
        "#": "248",
        "name": "高月医院",
        "address1": "清水区上清水町3-1",
        "address2": "",
        " 開設者": "医療法人社団　高月医院",
        " 管理者": "高月　誠",
        "start_date": "1991/04/01"
      },
      "geometry": {
        "type": "Point",
        "coordinates": [
          138.48398,
          35.010727
        ]
      }
    },
    {
      "type": "Feature",
      "properties": {
        "#": "165",
        "name": "高野外科胃腸科医院",
        "address1": "駿河区中田一丁目７番11号",
        "address2": "",
        " 開設者": "医療法人社団　慈高会",
        " 管理者": "高野  哲",
        "start_date": "1989/01/01"
      },
      "geometry": {
        "type": "Point",
        "coordinates": [
          138.393247,
          34.964833
        ]
      }
    },
    {
      "type": "Feature",
      "properties": {
        "#": "166",
        "name": "高野橋医院　脳神経外科　心臓血管外科",
        "address1": "駿河区北丸子二丁目５番１０号",
        "address2": "",
        " 開設者": "医療法人社団　律正会",
        " 管理者": "高野橋　正好",
        "start_date": "2005/01/01"
      },
      "geometry": {
        "type": "Point",
        "coordinates": [
          138.390924,
          34.987604
        ]
      }
    },
    {
      "type": "Feature",
      "properties": {
        "#": "6",
        "name": "今村医院",
        "address1": "葵区駒形通6-10-18",
        "address2": "",
        " 開設者": "今村好孝",
        " 管理者": "今村好孝",
        "start_date": "2001/03/01"
      },
      "geometry": {
        "type": "Point",
        "coordinates": [
          138.373049,
          34.96318
        ]
      }
    },
    {
      "type": "Feature",
      "properties": {
        "#": "232",
        "name": "佐々木クリニック",
        "address1": "清水区押切1738-1",
        "address2": "",
        " 開設者": "佐々木　寿彦",
        " 管理者": "佐々木　寿彦",
        "start_date": "2001/07/12"
      },
      "geometry": {
        "type": "Point",
        "coordinates": [
          138.455924,
          35.037381
        ]
      }
    },
    {
      "type": "Feature",
      "properties": {
        "#": "33",
        "name": "佐々木ハートクリニック",
        "address1": "葵区南瀬名町26番39号",
        "address2": "",
        " 開設者": "医療法人社団　玲徳会",
        " 管理者": "佐々木　玲聡",
        "start_date": "2015/01/15"
      },
      "geometry": {
        "type": "Point",
        "coordinates": [
          138.421472,
          35.005448
        ]
      }
    },
    {
      "type": "Feature",
      "properties": {
        "#": "233",
        "name": "佐藤医院",
        "address1": "清水区大坪2丁目３番１２号",
        "address2": "",
        " 開設者": "医療法人社団　敬真会",
        " 管理者": "佐藤　敬治",
        "start_date": "1990/08/01"
      },
      "geometry": {
        "type": "Point",
        "coordinates": [
          138.470376,
          35.010171
        ]
      }
    },
    {
      "type": "Feature",
      "properties": {
        "#": "152",
        "name": "佐野小児科",
        "address1": "駿河区用宗1-20-17",
        "address2": "",
        " 開設者": "医療法人社団双樹会",
        " 管理者": "佐野三枝子",
        "start_date": ""
      },
      "geometry": {
        "type": "Point",
        "coordinates": [
          138.365782,
          34.928034
        ]
      }
    },
    {
      "type": "Feature",
      "properties": {
        "#": "259",
        "name": "菜のはなファミリークリニック",
        "address1": "清水区由比750",
        "address2": "マンションＯａｋ１階",
        " 開設者": "望月　菜緒美",
        " 管理者": "望月　菜緒美",
        "start_date": "2014/06/01"
      },
      "geometry": {
        "type": "Point",
        "coordinates": [
          138.569338,
          35.110587
        ]
      }
    },
    {
      "type": "Feature",
      "properties": {
        "#": "32",
        "name": "坂本医院",
        "address1": "葵区上足洗三丁目２-８",
        "address2": "",
        " 開設者": "坂本　修一",
        " 管理者": "坂本　修一",
        "start_date": "2007/05/13"
      },
      "geometry": {
        "type": "Point",
        "coordinates": [
          138.392416,
          34.99481
        ]
      }
    },
    {
      "type": "Feature",
      "properties": {
        "#": "230",
        "name": "阪部循環器内科・内科　婦人科クリニック",
        "address1": "清水区駒越西一丁目２番62号",
        "address2": "",
        " 開設者": "阪部　優夫",
        " 管理者": "阪部　優夫",
        "start_date": "2016/03/01"
      },
      "geometry": {
        "type": "Point",
        "coordinates": [
          138.495949,
          34.976758
        ]
      }
    },
    {
      "type": "Feature",
      "properties": {
        "#": "268",
        "name": "三浦内科循環器科医院",
        "address1": "清水区折戸５２１番地の１０",
        "address2": "",
        " 開設者": "医療法人社団　三浦医院",
        " 管理者": "三浦　進",
        "start_date": "2005/11/01"
      },
      "geometry": {
        "type": "Point",
        "coordinates": [
          138.514125,
          34.995259
        ]
      }
    },
    {
      "type": "Feature",
      "properties": {
        "#": "31",
        "name": "三枝クリニック肛門科",
        "address1": "葵区栄町１番地の１",
        "address2": "",
        " 開設者": "医療法人社団　俊雄会三枝クリニック･肛門科",
        " 管理者": "三枝　純一",
        "start_date": "1989/01/01"
      },
      "geometry": {
        "type": "Point",
        "coordinates": [
          138.391173,
          34.974043
        ]
      }
    },
    {
      "type": "Feature",
      "properties": {
        "#": "269",
        "name": "三上医院",
        "address1": "清水区原５６－１２",
        "address2": "",
        " 開設者": "医療法人社団　康済会",
        " 管理者": "三上　誠",
        "start_date": "1989/08/01"
      },
      "geometry": {
        "type": "Point",
        "coordinates": [
          138.483963,
          35.04532
        ]
      }
    },
    {
      "type": "Feature",
      "properties": {
        "#": "188",
        "name": "三神医院",
        "address1": "駿河区西大谷４番地の４",
        "address2": "",
        " 開設者": "三神　美久",
        " 管理者": "三神　美久",
        "start_date": "2007/06/01"
      },
      "geometry": {
        "type": "Point",
        "coordinates": [
          138.428108,
          34.954904
        ]
      }
    },
    {
      "type": "Feature",
      "properties": {
        "#": "275",
        "name": "山の上病院",
        "address1": "清水区草ヶ谷６５１番地の７",
        "address2": "",
        " 開設者": "医療法人社団健寿会",
        " 管理者": "伊関　丈治",
        "start_date": "1988/03/03"
      },
      "geometry": {
        "type": "Point",
        "coordinates": [
          138.489951,
          35.052477
        ]
      }
    },
    {
      "type": "Feature",
      "properties": {
        "#": "197",
        "name": "山崎医院",
        "address1": "駿河区新川一丁目１９番５号",
        "address2": "",
        " 開設者": "医療法人社団ミュー",
        " 管理者": "山崎嘉弘",
        "start_date": "2004/04/01"
      },
      "geometry": {
        "type": "Point",
        "coordinates": [
          138.380396,
          34.964572
        ]
      }
    },
    {
      "type": "Feature",
      "properties": {
        "#": "199",
        "name": "山中整形外科",
        "address1": "駿河区敷地一丁目28番６号",
        "address2": "",
        " 開設者": "医療法人社団　慶静会",
        " 管理者": "山中　芳",
        "start_date": "2003/04/01"
      },
      "geometry": {
        "type": "Point",
        "coordinates": [
          138.413868,
          34.952498
        ]
      }
    },
    {
      "type": "Feature",
      "properties": {
        "#": "198",
        "name": "山田医院",
        "address1": "駿河区聖一色473-1",
        "address2": "",
        " 開設者": "山田孝史",
        " 管理者": "山田孝史",
        "start_date": "2003/04/01"
      },
      "geometry": {
        "type": "Point",
        "coordinates": [
          138.430072,
          34.985828
        ]
      }
    },
    {
      "type": "Feature",
      "properties": {
        "#": "116",
        "name": "山本内科医院",
        "address1": "葵区川合三丁目13番11号",
        "address2": "",
        " 開設者": "医療法人社団　山本内科医院",
        " 管理者": "山本洋史",
        "start_date": "1992/08/01"
      },
      "geometry": {
        "type": "Point",
        "coordinates": [
          138.410501,
          35.005593
        ]
      }
    },
    {
      "type": "Feature",
      "properties": {
        "#": "115",
        "name": "山梨整形外科",
        "address1": "葵区駒形通２丁目７番２２号",
        "address2": "",
        " 開設者": "医療法人社団フォルティス（国所管",
        " 管理者": "山梨　雅透",
        "start_date": ""
      },
      "geometry": {
        "type": "Point",
        "coordinates": [
          138.378007,
          34.96873
        ]
      }
    },
    {
      "type": "Feature",
      "properties": {
        "#": "49",
        "name": "司馬整形外科",
        "address1": "葵区栄町２番地の７",
        "address2": "",
        " 開設者": "医療法人石華会",
        " 管理者": "司馬　洋",
        "start_date": ""
      },
      "geometry": {
        "type": "Point",
        "coordinates": [
          138.391106,
          34.974816
        ]
      }
    },
    {
      "type": "Feature",
      "properties": {
        "#": "51",
        "name": "耳鼻咽喉科  荒木医院",
        "address1": "葵区新伝馬二丁目９番２２号",
        "address2": "",
        " 開設者": "医療法人社団　眞和会",
        " 管理者": "荒木　圭介",
        "start_date": "1989/06/01"
      },
      "geometry": {
        "type": "Point",
        "coordinates": [
          138.366663,
          34.998381
        ]
      }
    },
    {
      "type": "Feature",
      "properties": {
        "#": "237",
        "name": "耳鼻咽喉科　まこし医院",
        "address1": "清水区巴町14番12号",
        "address2": "",
        " 開設者": "医療法人社団　恭成会",
        " 管理者": "馬越　智浩",
        "start_date": "1989/04/01"
      },
      "geometry": {
        "type": "Point",
        "coordinates": [
          138.487238,
          35.018026
        ]
      }
    },
    {
      "type": "Feature",
      "properties": {
        "#": "159",
        "name": "柴山クリニック",
        "address1": "駿河区登呂五丁目11番９号",
        "address2": "",
        " 開設者": "医療法人社団　柴山クリニック",
        " 管理者": "柴山修介",
        "start_date": ""
      },
      "geometry": {
        "type": "Point",
        "coordinates": [
          138.406949,
          34.956653
        ]
      }
    },
    {
      "type": "Feature",
      "properties": {
        "#": "236",
        "name": "柴田内科医院",
        "address1": "清水区西久保３１８",
        "address2": "",
        " 開設者": "医療法人社団　柴田医院",
        " 管理者": "柴田　敏",
        "start_date": "1998/01/01"
      },
      "geometry": {
        "type": "Point",
        "coordinates": [
          138.486563,
          35.033654
        ]
      }
    },
    {
      "type": "Feature",
      "properties": {
        "#": "247",
        "name": "宗内科医院",
        "address1": "清水区草薙139番地",
        "address2": "",
        " 開設者": "医療法人社団　健和会",
        " 管理者": "宗　幹之",
        "start_date": "2014/12/01"
      },
      "geometry": {
        "type": "Point",
        "coordinates": [
          138.446734,
          34.999152
        ]
      }
    },
    {
      "type": "Feature",
      "properties": {
        "#": "125",
        "name": "秋山クリニック",
        "address1": "駿河区八幡一丁目２番25号",
        "address2": "",
        " 開設者": "秋山征巳",
        " 管理者": "秋山征巳",
        "start_date": ""
      },
      "geometry": {
        "type": "Point",
        "coordinates": [
          138.393964,
          34.972918
        ]
      }
    },
    {
      "type": "Feature",
      "properties": {
        "#": "2",
        "name": "秋田内科・呼吸器内科",
        "address1": "葵区籠上12番地の41",
        "address2": "",
        " 開設者": "秋田　剛史",
        " 管理者": "秋田　剛史",
        "start_date": "2018/04/01"
      },
      "geometry": {
        "type": "Point",
        "coordinates": [
          138.36981,
          34.99296
        ]
      }
    },
    {
      "type": "Feature",
      "properties": {
        "#": "18",
        "name": "勝又医院",
        "address1": "葵区大岩1-5-40",
        "address2": "",
        " 開設者": "医療法人社団　俊洋会",
        " 管理者": "勝又　俊弥",
        "start_date": "1989/08/01"
      },
      "geometry": {
        "type": "Point",
        "coordinates": [
          138.381895,
          34.993943
        ]
      }
    },
    {
      "type": "Feature",
      "properties": {
        "#": "19",
        "name": "勝又小児科アレルギー科医院",
        "address1": "葵区紺屋町12-5",
        "address2": "",
        " 開設者": "医療法人社団　富岳会勝又医院",
        " 管理者": "勝又正孝",
        "start_date": ""
      },
      "geometry": {
        "type": "Point",
        "coordinates": [
          138.384683,
          34.972514
        ]
      }
    },
    {
      "type": "Feature",
      "properties": {
        "#": "224",
        "name": "小原医院",
        "address1": "清水区有度本町2-15",
        "address2": "",
        " 開設者": "小原　英昭",
        " 管理者": "小原　英昭",
        "start_date": "1996/10/01"
      },
      "geometry": {
        "type": "Point",
        "coordinates": [
          138.452459,
          35.007468
        ]
      }
    },
    {
      "type": "Feature",
      "properties": {
        "#": "53",
        "name": "小児科  いいやま医院",
        "address1": "葵区東草深町8-18",
        "address2": "",
        " 開設者": "医療法人社団　いいやま",
        " 管理者": "飯山道郎",
        "start_date": ""
      },
      "geometry": {
        "type": "Point",
        "coordinates": [
          138.38472,
          34.984103
        ]
      }
    },
    {
      "type": "Feature",
      "properties": {
        "#": "54",
        "name": "小児科内科  杉山医院",
        "address1": "葵区瀬名川二丁目23番21号",
        "address2": "",
        " 開設者": "医療法人社団　パームクリニック",
        " 管理者": "杉山直史",
        "start_date": ""
      },
      "geometry": {
        "type": "Point",
        "coordinates": [
          138.428919,
          35.007465
        ]
      }
    },
    {
      "type": "Feature",
      "properties": {
        "#": "16",
        "name": "小澤内科胃腸科",
        "address1": "葵区瀬名川一丁目29番32号",
        "address2": "",
        " 開設者": "医療法人社団セナ",
        " 管理者": "小澤　達雄",
        "start_date": ""
      },
      "geometry": {
        "type": "Point",
        "coordinates": [
          138.424663,
          35.006435
        ]
      }
    },
    {
      "type": "Feature",
      "properties": {
        "#": "241",
        "name": "庄司産婦人科",
        "address1": "清水区江尻東一丁目４番１号",
        "address2": "",
        " 開設者": "医療法人社団　産声会",
        " 管理者": "庄司　潔",
        "start_date": "1989/01/01"
      },
      "geometry": {
        "type": "Point",
        "coordinates": [
          138.485008,
          35.0234
        ]
      }
    },
    {
      "type": "Feature",
      "properties": {
        "#": "55",
        "name": "昭府小児科クリニック",
        "address1": "葵区昭府2-6-16",
        "address2": "",
        " 開設者": "医療法人社団　昭府小児科クリニック",
        " 管理者": "鈴木健",
        "start_date": ""
      },
      "geometry": {
        "type": "Point",
        "coordinates": [
          138.370176,
          35.001473
        ]
      }
    },
    {
      "type": "Feature",
      "properties": {
        "#": "93",
        "name": "松浦内科",
        "address1": "葵区水落町12番14号",
        "address2": "",
        " 開設者": "医療法人社団　徳和会",
        " 管理者": "朝香　恭子",
        "start_date": "1997/01/24"
      },
      "geometry": {
        "type": "Point",
        "coordinates": [
          138.386384,
          34.982994
        ]
      }
    },
    {
      "type": "Feature",
      "properties": {
        "#": "98",
        "name": "松成内科クリニック",
        "address1": "葵区大岩本町７番１号",
        "address2": "",
        " 開設者": "医療法人社団　松成内科クリニック",
        " 管理者": "松成信彦",
        "start_date": ""
      },
      "geometry": {
        "type": "Point",
        "coordinates": [
          138.381715,
          34.989624
        ]
      }
    },
    {
      "type": "Feature",
      "properties": {
        "#": "187",
        "name": "松生整形外科医院",
        "address1": "駿河区西島528番地",
        "address2": "",
        " 開設者": "医療法人社団　宏整会",
        " 管理者": "松生宏文",
        "start_date": ""
      },
      "geometry": {
        "type": "Point",
        "coordinates": [
          138.402789,
          34.943499
        ]
      }
    },
    {
      "type": "Feature",
      "properties": {
        "#": "96",
        "name": "松田消化器内科クリニック",
        "address1": "葵区城北24",
        "address2": "",
        " 開設者": "医療法人社団　山吉会",
        " 管理者": "松田　昌幸",
        "start_date": ""
      },
      "geometry": {
        "type": "Point",
        "coordinates": [
          138.394371,
          34.999678
        ]
      }
    },
    {
      "type": "Feature",
      "properties": {
        "#": "267",
        "name": "松本整形外科・皮膚科",
        "address1": "清水区村松1-1-58",
        "address2": "",
        " 開設者": "医療法人社団慶清会",
        " 管理者": "松本　隆志",
        "start_date": "1998/08/01"
      },
      "geometry": {
        "type": "Point",
        "coordinates": [
          138.489802,
          34.997584
        ]
      }
    },
    {
      "type": "Feature",
      "properties": {
        "#": "94",
        "name": "松木消化器内科クリニック",
        "address1": "葵区千代田7-7-12",
        "address2": "",
        " 開設者": "医療法人社団　マッキー",
        " 管理者": "松木　啓",
        "start_date": "1999/08/01"
      },
      "geometry": {
        "type": "Point",
        "coordinates": [
          138.404762,
          35.003036
        ]
      }
    },
    {
      "type": "Feature",
      "properties": {
        "#": "21",
        "name": "上足洗内科クリニック",
        "address1": "葵区上足洗一丁目２番35号",
        "address2": "",
        " 開設者": "八木　俊輔",
        " 管理者": "八木　俊輔",
        "start_date": "2014/11/01"
      },
      "geometry": {
        "type": "Point",
        "coordinates": [
          138.395905,
          34.988269
        ]
      }
    },
    {
      "type": "Feature",
      "properties": {
        "#": "52",
        "name": "城西クリニック",
        "address1": "葵区新富町五丁目７番地の６",
        "address2": "",
        " 開設者": "医療法人社団　泰平会",
        " 管理者": "日野　佑介",
        "start_date": ""
      },
      "geometry": {
        "type": "Point",
        "coordinates": [
          138.369625,
          34.969796
        ]
      }
    },
    {
      "type": "Feature",
      "properties": {
        "#": "58",
        "name": "城北すぎやま整形外科",
        "address1": "葵区大岩本町23－７",
        "address2": "",
        " 開設者": "医療法人社団ハル",
        " 管理者": "杉山　晴敏",
        "start_date": "2007/01/01"
      },
      "geometry": {
        "type": "Point",
        "coordinates": [
          138.377182,
          34.986674
        ]
      }
    },
    {
      "type": "Feature",
      "properties": {
        "#": "56",
        "name": "城北共立クリニック",
        "address1": "葵区城北111番地１の１",
        "address2": "",
        " 開設者": "医療法人社団偕翔会",
        " 管理者": "大下　裕世",
        "start_date": "2002/06/03"
      },
      "geometry": {
        "type": "Point",
        "coordinates": [
          138.394906,
          35.001531
        ]
      }
    },
    {
      "type": "Feature",
      "properties": {
        "#": "57",
        "name": "城北耳鼻咽喉科",
        "address1": "葵区城北29-1",
        "address2": "",
        " 開設者": "医療法人社団心誠会",
        " 管理者": "小津　龍一朗",
        "start_date": ""
      },
      "geometry": {
        "type": "Point",
        "coordinates": [
          138.395346,
          35.000178
        ]
      }
    },
    {
      "type": "Feature",
      "properties": {
        "#": "62",
        "name": "新静岡たにぐち眼科",
        "address1": "葵区鷹匠一丁目１番１号",
        "address2": "新静岡セノバ４階",
        " 開設者": "医療法人社団隆優会",
        " 管理者": "谷口　秀隆",
        "start_date": "2020/11/13"
      },
      "geometry": {
        "type": "Point",
        "coordinates": [
          138.387308,
          34.975559
        ]
      }
    },
    {
      "type": "Feature",
      "properties": {
        "#": "193",
        "name": "森園クリニック　耳鼻咽喉科・アレルギー科",
        "address1": "駿河区見瀬216",
        "address2": "",
        " 開設者": "森園徹志",
        " 管理者": "森園徹志",
        "start_date": "2001/01/19"
      },
      "geometry": {
        "type": "Point",
        "coordinates": [
          138.390823,
          34.956673
        ]
      }
    },
    {
      "type": "Feature",
      "properties": {
        "#": "113",
        "name": "森谷内科医院",
        "address1": "葵区山崎一丁目26番地の９",
        "address2": "",
        " 開設者": "医療法人社団　美ノ郷会",
        " 管理者": "森谷　晋",
        "start_date": "2013/09/25"
      },
      "geometry": {
        "type": "Point",
        "coordinates": [
          138.351962,
          34.977481
        ]
      }
    },
    {
      "type": "Feature",
      "properties": {
        "#": "111",
        "name": "森田クリニック",
        "address1": "葵区上足洗四丁目１番７号",
        "address2": "",
        " 開設者": "医療法人社団　恒志会",
        " 管理者": "森田　清文",
        "start_date": "2011/10/01"
      },
      "geometry": {
        "type": "Point",
        "coordinates": [
          138.396972,
          34.990355
        ]
      }
    },
    {
      "type": "Feature",
      "properties": {
        "#": "112",
        "name": "森福耳鼻咽喉科医院",
        "address1": "葵区安倍口新田143-1",
        "address2": "",
        " 開設者": "森福孝之",
        " 管理者": "森福孝之",
        "start_date": ""
      },
      "geometry": {
        "type": "Point",
        "coordinates": [
          138.387648,
          34.969138
        ]
      }
    },
    {
      "type": "Feature",
      "properties": {
        "#": "194",
        "name": "森福整形外科",
        "address1": "駿河区丸子一丁目4番37号",
        "address2": "",
        " 開設者": "医療法人社団研友会",
        " 管理者": "森福　研一",
        "start_date": "2006/05/01"
      },
      "geometry": {
        "type": "Point",
        "coordinates": [
          138.358465,
          34.944435
        ]
      }
    },
    {
      "type": "Feature",
      "properties": {
        "#": "246",
        "name": "諏訪医院",
        "address1": "清水区桜橋町6-35",
        "address2": "",
        " 開設者": "医療法人社団諏訪医院",
        " 管理者": "諏訪　一郎",
        "start_date": "1996/08/01"
      },
      "geometry": {
        "type": "Point",
        "coordinates": [
          138.476914,
          35.013946
        ]
      }
    },
    {
      "type": "Feature",
      "properties": {
        "#": "99",
        "name": "水谷痛みのクリニック",
        "address1": "葵区鷹匠一丁目11番15号",
        "address2": "MIC新静岡2階3階",
        " 開設者": "医療法人社団　明仁会",
        " 管理者": "水谷　彰仁",
        "start_date": "2009/02/01"
      },
      "geometry": {
        "type": "Point",
        "coordinates": [
          138.387778,
          34.976081
        ]
      }
    },
    {
      "type": "Feature",
      "properties": {
        "#": "189",
        "name": "水谷脳神経外科クリニック",
        "address1": "駿河区馬渕四丁目11番９号",
        "address2": "",
        " 開設者": "医療法人社団MNS",
        " 管理者": "水谷　暢秀",
        "start_date": "2017/12/01"
      },
      "geometry": {
        "type": "Point",
        "coordinates": [
          138.391242,
          34.959503
        ]
      }
    },
    {
      "type": "Feature",
      "properties": {
        "#": "163",
        "name": "杉浦内科",
        "address1": "駿河区みずほ四丁目10番地の10",
        "address2": "",
        " 開設者": "医療法人社団　杉浦内科",
        " 管理者": "宮崎洋生",
        "start_date": ""
      },
      "geometry": {
        "type": "Point",
        "coordinates": [
          138.364854,
          34.941077
        ]
      }
    },
    {
      "type": "Feature",
      "properties": {
        "#": "244",
        "name": "杉山クリニック",
        "address1": "清水区七ッ新屋364番地の１",
        "address2": "",
        " 開設者": "医療法人社団　永壽会",
        " 管理者": "杉山壽一",
        "start_date": "2016/03/28"
      },
      "geometry": {
        "type": "Point",
        "coordinates": [
          138.451056,
          35.009729
        ]
      }
    },
    {
      "type": "Feature",
      "properties": {
        "#": "164",
        "name": "杉山医院",
        "address1": "駿河区泉町４番５号",
        "address2": "",
        " 開設者": "医療法人社団　泉町杉山医院",
        " 管理者": "石井　裕",
        "start_date": ""
      },
      "geometry": {
        "type": "Point",
        "coordinates": [
          138.388484,
          34.968341
        ]
      }
    },
    {
      "type": "Feature",
      "properties": {
        "#": "173",
        "name": "杉山医院",
        "address1": "駿河区登呂五丁目４番１号",
        "address2": "",
        " 開設者": "医療法人社団　登呂杉山医院",
        " 管理者": "杉山圭一",
        "start_date": "1988/10/01"
      },
      "geometry": {
        "type": "Point",
        "coordinates": [
          138.404238,
          34.956153
        ]
      }
    },
    {
      "type": "Feature",
      "properties": {
        "#": "243",
        "name": "杉山医院",
        "address1": "清水区大手三丁目３番21号",
        "address2": "",
        " 開設者": "杉山　好彦",
        " 管理者": "杉山　好彦",
        "start_date": "2013/07/07"
      },
      "geometry": {
        "type": "Point",
        "coordinates": [
          138.481933,
          35.029024
        ]
      }
    },
    {
      "type": "Feature",
      "properties": {
        "#": "63",
        "name": "菅野医院分院",
        "address1": "葵区瀬名一丁目７番３号",
        "address2": "",
        " 開設者": "医療法人社団　桜医会",
        " 管理者": "菅野寛也",
        "start_date": "1976/04/04"
      },
      "geometry": {
        "type": "Point",
        "coordinates": [
          138.419341,
          35.012805
        ]
      }
    },
    {
      "type": "Feature",
      "properties": {
        "#": "68",
        "name": "瀬名こどもクリニック",
        "address1": "葵区瀬名中央3-28-20",
        "address2": "",
        " 開設者": "医療法人社団　瀬名こどもクリニック",
        " 管理者": "望月康弘",
        "start_date": ""
      },
      "geometry": {
        "type": "Point",
        "coordinates": [
          138.421199,
          35.0115
        ]
      }
    },
    {
      "type": "Feature",
      "properties": {
        "#": "240",
        "name": "清水両河内診療所",
        "address1": "清水区和田島693番地の１",
        "address2": "",
        " 開設者": "医療法人社団　真樹会",
        " 管理者": "小豆原　秀貴",
        "start_date": "2009/11/01"
      },
      "geometry": {
        "type": "Point",
        "coordinates": [
          138.479121,
          35.109842
        ]
      }
    },
    {
      "type": "Feature",
      "properties": {
        "#": "1",
        "name": "青山医院",
        "address1": "葵区北一丁目10番18号",
        "address2": "",
        " 開設者": "医療法人社団　青山会",
        " 管理者": "青山　祐也",
        "start_date": "2013/12/01"
      },
      "geometry": {
        "type": "Point",
        "coordinates": [
          138.395074,
          35.03501
        ]
      }
    },
    {
      "type": "Feature",
      "properties": {
        "#": "203",
        "name": "青木内科クリニック",
        "address1": "清水区興津中町９９－２",
        "address2": "",
        " 開設者": "青木　秀剛",
        " 管理者": "青木　秀剛",
        "start_date": "2004/06/14"
      },
      "geometry": {
        "type": "Point",
        "coordinates": [
          138.52354,
          35.05163
        ]
      }
    },
    {
      "type": "Feature",
      "properties": {
        "#": "202",
        "name": "青木内科医院",
        "address1": "清水区興津清見寺町１４３番地の１７",
        "address2": "",
        " 開設者": "医療法人社団耕孝会",
        " 管理者": "青木　孝夫",
        "start_date": "1989/08/01"
      },
      "geometry": {
        "type": "Point",
        "coordinates": [
          138.508989,
          35.046139
        ]
      }
    },
    {
      "type": "Feature",
      "properties": {
        "#": "36",
        "name": "静岡あおい消化器内科クリニック",
        "address1": "葵区北安東三丁目３番28号",
        "address2": "",
        " 開設者": "北村　匡",
        " 管理者": "北村　匡",
        "start_date": "2018/08/01"
      },
      "geometry": {
        "type": "Point",
        "coordinates": [
          138.384711,
          34.998348
        ]
      }
    },
    {
      "type": "Feature",
      "properties": {
        "#": "46",
        "name": "静岡ハートリズムクリニック",
        "address1": "葵区黒金町49パルシェ７階",
        "address2": "",
        " 開設者": "藤木　明",
        " 管理者": "藤木　明",
        "start_date": "2015/05/11"
      },
      "geometry": {
        "type": "Point",
        "coordinates": [
          138.388731,
          34.972132
        ]
      }
    },
    {
      "type": "Feature",
      "properties": {
        "#": "157",
        "name": "静岡ホームクリニック",
        "address1": "駿河区中田四丁目６番１号１階",
        "address2": "",
        " 開設者": "医療法人社団　貞栄会",
        " 管理者": "松本　拓也",
        "start_date": "2016/11/01"
      },
      "geometry": {
        "type": "Point",
        "coordinates": [
          138.398603,
          34.958452
        ]
      }
    },
    {
      "type": "Feature",
      "properties": {
        "#": "48",
        "name": "静岡レディースクリニック",
        "address1": "葵区日出町10番地の３",
        "address2": "",
        " 開設者": "医療法人社団　幸のめばえ（静岡県へ移管）",
        " 管理者": "内田　律子",
        "start_date": "2011/04/01"
      },
      "geometry": {
        "type": "Point",
        "coordinates": [
          138.394914,
          34.975332
        ]
      }
    },
    {
      "type": "Feature",
      "properties": {
        "#": "39",
        "name": "静岡駅前トラベルクリニック",
        "address1": "葵区栄町２番地の５",
        "address2": "アークビル402号",
        " 開設者": "医療法人社団芳誠会",
        " 管理者": "川野辺　重之",
        "start_date": "2020/07/17"
      },
      "geometry": {
        "type": "Point",
        "coordinates": [
          138.391375,
          34.974126
        ]
      }
    },
    {
      "type": "Feature",
      "properties": {
        "#": "154",
        "name": "静岡共立クリニック",
        "address1": "駿河区曲金四丁目１番25号",
        "address2": "",
        " 開設者": "医療法人社団偕翔会",
        " 管理者": "堀川　和裕",
        "start_date": ""
      },
      "geometry": {
        "type": "Point",
        "coordinates": [
          138.408793,
          34.977418
        ]
      }
    },
    {
      "type": "Feature",
      "properties": {
        "#": "158",
        "name": "静岡曲金クリニック",
        "address1": "駿河区曲金三丁目５番５号",
        "address2": "",
        " 開設者": "医療法人社団ヴェリタス",
        " 管理者": "真砂　園真",
        "start_date": "2005/08/01"
      },
      "geometry": {
        "type": "Point",
        "coordinates": [
          138.406682,
          34.976457
        ]
      }
    },
    {
      "type": "Feature",
      "properties": {
        "#": "155",
        "name": "静岡済生会総合病院",
        "address1": "駿河区小鹿一丁目１番１号",
        "address2": "",
        " 開設者": "社会福祉法人恩賜財団済生会支部　静岡県済生会",
        " 管理者": "岡本　好史",
        "start_date": "1948/09/01"
      },
      "geometry": {
        "type": "Point",
        "coordinates": [
          138.412834,
          34.976059
        ]
      }
    },
    {
      "type": "Feature",
      "properties": {
        "#": "81",
        "name": "静岡市葵区の内科　多田クリニック",
        "address1": "葵区北番町88番地の７",
        "address2": "",
        " 開設者": "医療法人社団仁智会",
        " 管理者": "多田　耕平",
        "start_date": "2020/10/01"
      },
      "geometry": {
        "type": "Point",
        "coordinates": [
          138.369375,
          34.979184
        ]
      }
    },
    {
      "type": "Feature",
      "properties": {
        "#": "41",
        "name": "静岡市国民健康保険井川診療所",
        "address1": "葵区井川1133-2",
        "address2": "",
        " 開設者": "静岡市",
        " 管理者": "山田寛",
        "start_date": "2003/04/01"
      },
      "geometry": {
        "type": "Point",
        "coordinates": [
          138.244286,
          35.222103
        ]
      }
    },
    {
      "type": "Feature",
      "properties": {
        "#": "235",
        "name": "静岡市立清水病院",
        "address1": "清水区宮加三１２３１番地",
        "address2": "",
        " 開設者": "静岡市",
        " 管理者": "藤井　浩治",
        "start_date": "2003/04/01"
      },
      "geometry": {
        "type": "Point",
        "coordinates": [
          138.490058,
          34.982913
        ]
      }
    },
    {
      "type": "Feature",
      "properties": {
        "#": "44",
        "name": "静岡市立静岡病院",
        "address1": "葵区追手町10番93号",
        "address2": "",
        " 開設者": "地方独立行政法人　静岡市立静岡病院",
        " 管理者": "小野寺　知哉",
        "start_date": "2016/04/01"
      },
      "geometry": {
        "type": "Point",
        "coordinates": [
          138.379648,
          34.978453
        ]
      }
    },
    {
      "type": "Feature",
      "properties": {
        "#": "43",
        "name": "静岡消化器クリニック",
        "address1": "葵区鷹匠一丁目12番１号",
        "address2": "静鉄鷹匠青葉園ビル２階",
        " 開設者": "医療法人社団AOI",
        " 管理者": "請川　淳一",
        "start_date": "2020/12/01"
      },
      "geometry": {
        "type": "Point",
        "coordinates": [
          138.388273,
          34.976138
        ]
      }
    },
    {
      "type": "Feature",
      "properties": {
        "#": "45",
        "name": "静岡田町診療所",
        "address1": "葵区田町五丁目２２番地",
        "address2": "",
        " 開設者": "医療法人社団静岡健生会",
        " 管理者": "小林　豊子",
        "start_date": "2020/06/01"
      },
      "geometry": {
        "type": "Point",
        "coordinates": [
          138.36855,
          34.968154
        ]
      }
    },
    {
      "type": "Feature",
      "properties": {
        "#": "156",
        "name": "静岡徳洲会病院",
        "address1": "駿河区下川原南１１番１号",
        "address2": "",
        " 開設者": "医療法人沖縄徳洲会",
        " 管理者": "山之上　弘樹",
        "start_date": "2005/03/16"
      },
      "geometry": {
        "type": "Point",
        "coordinates": [
          138.384263,
          34.931326
        ]
      }
    },
    {
      "type": "Feature",
      "properties": {
        "#": "67",
        "name": "静清リハビリテーション病院",
        "address1": "葵区春日二丁目１２番２５号",
        "address2": "",
        " 開設者": "医療法人社団アールアンドオー",
        " 管理者": "鳥取　孝安",
        "start_date": "2005/03/01"
      },
      "geometry": {
        "type": "Point",
        "coordinates": [
          138.403853,
          34.979251
        ]
      }
    },
    {
      "type": "Feature",
      "properties": {
        "#": "132",
        "name": "石井内科医院",
        "address1": "駿河区馬渕二丁目10番20号",
        "address2": "",
        " 開設者": "医療法人社団　圭友会",
        " 管理者": "石井　一徳",
        "start_date": "1989/06/01"
      },
      "geometry": {
        "type": "Point",
        "coordinates": [
          138.386506,
          34.965266
        ]
      }
    },
    {
      "type": "Feature",
      "properties": {
        "#": "205",
        "name": "浅井内科医院",
        "address1": "清水区中矢部町３番15号",
        "address2": "",
        " 開設者": "医療法人社団　俊友会",
        " 管理者": "浅井　寿彦",
        "start_date": "1991/11/01"
      },
      "geometry": {
        "type": "Point",
        "coordinates": [
          138.4814,
          35.000544
        ]
      }
    },
    {
      "type": "Feature",
      "properties": {
        "#": "127",
        "name": "浅野医院",
        "address1": "駿河区丸子三丁目12番64号",
        "address2": "",
        " 開設者": "医療法人社団　エコロナ会",
        " 管理者": "浅野　英一",
        "start_date": "2005/08/01"
      },
      "geometry": {
        "type": "Point",
        "coordinates": [
          138.350696,
          34.946898
        ]
      }
    },
    {
      "type": "Feature",
      "properties": {
        "#": "206",
        "name": "浅野医院",
        "address1": "清水区木の下町９９",
        "address2": "",
        " 開設者": "浅野　健",
        " 管理者": "浅野　健",
        "start_date": "2002/08/14"
      },
      "geometry": {
        "type": "Point",
        "coordinates": [
          138.468518,
          35.00413
        ]
      }
    },
    {
      "type": "Feature",
      "properties": {
        "#": "264",
        "name": "船越クリニック",
        "address1": "清水区船越三丁目10番19号",
        "address2": "",
        " 開設者": "川村　直見",
        " 管理者": "川村　直見",
        "start_date": "1997/12/04"
      },
      "geometry": {
        "type": "Point",
        "coordinates": [
          138.470735,
          34.999067
        ]
      }
    },
    {
      "type": "Feature",
      "properties": {
        "#": "226",
        "name": "草ヶ谷医院",
        "address1": "清水区鶴舞町6-1",
        "address2": "",
        " 開設者": "医療法人社団　博雅会",
        " 管理者": "草ヶ谷　雅志",
        "start_date": "1993/08/01"
      },
      "geometry": {
        "type": "Point",
        "coordinates": [
          138.472484,
          35.016765
        ]
      }
    },
    {
      "type": "Feature",
      "properties": {
        "#": "227",
        "name": "草薙眼科",
        "address1": "清水区中之郷1丁目2-17",
        "address2": "",
        " 開設者": "杉江　進",
        " 管理者": "杉江　進",
        "start_date": "1985/10/17"
      },
      "geometry": {
        "type": "Point",
        "coordinates": [
          138.440396,
          34.998894
        ]
      }
    },
    {
      "type": "Feature",
      "properties": {
        "#": "228",
        "name": "草薙整形外科リウマチクリニック",
        "address1": "清水区草薙2丁目24-15",
        "address2": "",
        " 開設者": "医療法人社団　博恵会",
        " 管理者": "桃原　茂樹",
        "start_date": "1989/01/01"
      },
      "geometry": {
        "type": "Point",
        "coordinates": [
          138.445226,
          35.003383
        ]
      }
    },
    {
      "type": "Feature",
      "properties": {
        "#": "229",
        "name": "草薙土屋外科医院",
        "address1": "清水区草薙1丁目25-35",
        "address2": "",
        " 開設者": "土屋　和弘",
        " 管理者": "土屋　和弘",
        "start_date": "1985/09/01"
      },
      "geometry": {
        "type": "Point",
        "coordinates": [
          138.444935,
          35.000495
        ]
      }
    },
    {
      "type": "Feature",
      "properties": {
        "#": "186",
        "name": "増田こどもクリニック",
        "address1": "駿河区豊田一丁目8番30号",
        "address2": "",
        " 開設者": "増田　裕行",
        " 管理者": "増田　裕行",
        "start_date": "2008/08/01"
      },
      "geometry": {
        "type": "Point",
        "coordinates": [
          138.408926,
          34.969088
        ]
      }
    },
    {
      "type": "Feature",
      "properties": {
        "#": "14",
        "name": "太田外科医院",
        "address1": "葵区北一丁目27番32号",
        "address2": "",
        " 開設者": "太田  光",
        " 管理者": "太田  光",
        "start_date": ""
      },
      "geometry": {
        "type": "Point",
        "coordinates": [
          138.393653,
          35.029948
        ]
      }
    },
    {
      "type": "Feature",
      "properties": {
        "#": "13",
        "name": "大河内診療所",
        "address1": "葵区平野1097番地の39",
        "address2": "",
        " 開設者": "医療法人社団　龍翔襄司会瀧浪医院",
        " 管理者": "瀧浪　愼介",
        "start_date": "2013/04/01"
      },
      "geometry": {
        "type": "Point",
        "coordinates": [
          138.365327,
          35.144248
        ]
      }
    },
    {
      "type": "Feature",
      "properties": {
        "#": "15",
        "name": "大原内科",
        "address1": "葵区沓谷5-4-14",
        "address2": "",
        " 開設者": "医療法人社団　大原内科",
        " 管理者": "大原　徹也",
        "start_date": ""
      },
      "geometry": {
        "type": "Point",
        "coordinates": [
          138.408321,
          34.994972
        ]
      }
    },
    {
      "type": "Feature",
      "properties": {
        "#": "12",
        "name": "大石内科循環器科医院",
        "address1": "葵区鷹匠2-6-1",
        "address2": "",
        " 開設者": "医療法人社団　俊恵会",
        " 管理者": "大石達夫",
        "start_date": ""
      },
      "geometry": {
        "type": "Point",
        "coordinates": [
          138.387481,
          34.977348
        ]
      }
    },
    {
      "type": "Feature",
      "properties": {
        "#": "139",
        "name": "大村クリニック",
        "address1": "駿河区中村町152番地の３",
        "address2": "",
        " 開設者": "医療法人社団　陸和会",
        " 管理者": "大村　博陸",
        "start_date": "2017/04/03"
      },
      "geometry": {
        "type": "Point",
        "coordinates": [
          138.393748,
          34.952726
        ]
      }
    },
    {
      "type": "Feature",
      "properties": {
        "#": "141",
        "name": "大谷はざまクリニック",
        "address1": "駿河区宮川39番地の20",
        "address2": "",
        " 開設者": "医療法人社団　浩葉会",
        " 管理者": "間浩明",
        "start_date": ""
      },
      "geometry": {
        "type": "Point",
        "coordinates": [
          138.42563,
          34.95939
        ]
      }
    },
    {
      "type": "Feature",
      "properties": {
        "#": "138",
        "name": "大町耳鼻咽喉科医院",
        "address1": "駿河区八幡5-7-34",
        "address2": "",
        " 開設者": "医療法人社団　広済会",
        " 管理者": "大町  滋",
        "start_date": "1990/06/01"
      },
      "geometry": {
        "type": "Point",
        "coordinates": [
          138.399714,
          34.965341
        ]
      }
    },
    {
      "type": "Feature",
      "properties": {
        "#": "221",
        "name": "大蝶耳鼻咽喉科",
        "address1": "清水区船原二丁目176-5",
        "address2": "",
        " 開設者": "大蝶　修司",
        " 管理者": "大蝶　修司",
        "start_date": "2007/01/12"
      },
      "geometry": {
        "type": "Point",
        "coordinates": [
          138.47179,
          35.004622
        ]
      }
    },
    {
      "type": "Feature",
      "properties": {
        "#": "137",
        "name": "大島医院",
        "address1": "駿河区用宗1-33-3",
        "address2": "",
        " 開設者": "大島聡彦",
        " 管理者": "大島聡彦",
        "start_date": ""
      },
      "geometry": {
        "type": "Point",
        "coordinates": [
          138.368218,
          34.926006
        ]
      }
    },
    {
      "type": "Feature",
      "properties": {
        "#": "249",
        "name": "滝戸医院",
        "address1": "清水区村松原1丁目2-5",
        "address2": "",
        " 開設者": "医療法人社団　清秀会",
        " 管理者": "滝戸　直人",
        "start_date": "1989/11/01"
      },
      "geometry": {
        "type": "Point",
        "coordinates": [
          138.489252,
          35.000047
        ]
      }
    },
    {
      "type": "Feature",
      "properties": {
        "#": "250",
        "name": "竹内クリニック",
        "address1": "清水区追分二丁目７－１５",
        "address2": "",
        " 開設者": "医療法人社団　慈康会",
        " 管理者": "竹内　康史",
        "start_date": "1991/01/01"
      },
      "geometry": {
        "type": "Point",
        "coordinates": [
          138.475034,
          35.013123
        ]
      }
    },
    {
      "type": "Feature",
      "properties": {
        "#": "251",
        "name": "竹内内科",
        "address1": "清水区巴町２番５号",
        "address2": "",
        " 開設者": "医療法人社団　竹内内科",
        " 管理者": "竹内　健",
        "start_date": "1991/01/01"
      },
      "geometry": {
        "type": "Point",
        "coordinates": [
          138.486744,
          35.017576
        ]
      }
    },
    {
      "type": "Feature",
      "properties": {
        "#": "84",
        "name": "長谷通りクリニック",
        "address1": "葵区安東一丁目21番９号",
        "address2": "",
        " 開設者": "医療法人社団伯美会",
        " 管理者": "阿美　宗伯",
        "start_date": "2006/01/04"
      },
      "geometry": {
        "type": "Point",
        "coordinates": [
          138.38345,
          34.984343
        ]
      }
    },
    {
      "type": "Feature",
      "properties": {
        "#": "129",
        "name": "天野外科医院",
        "address1": "駿河区見瀬243番地",
        "address2": "",
        " 開設者": "医療法人社団　すこやかクリニック",
        " 管理者": "天野　謙",
        "start_date": ""
      },
      "geometry": {
        "type": "Point",
        "coordinates": [
          138.390926,
          34.956509
        ]
      }
    },
    {
      "type": "Feature",
      "properties": {
        "#": "252",
        "name": "田村医院",
        "address1": "清水区船越東町１８０番地の９",
        "address2": "",
        " 開設者": "医療法人社団　克己会田村医院",
        " 管理者": "田村　憲",
        "start_date": "2000/01/05"
      },
      "geometry": {
        "type": "Point",
        "coordinates": [
          138.472334,
          35.003808
        ]
      }
    },
    {
      "type": "Feature",
      "properties": {
        "#": "168",
        "name": "田村外科医院",
        "address1": "駿河区八幡3-21-26",
        "address2": "",
        " 開設者": "医療法人社団　南昂会",
        " 管理者": "田村茂樹",
        "start_date": "1995/01/01"
      },
      "geometry": {
        "type": "Point",
        "coordinates": [
          138.398513,
          34.970857
        ]
      }
    },
    {
      "type": "Feature",
      "properties": {
        "#": "70",
        "name": "田中消化器科クリニック",
        "address1": "葵区音羽町8番3号",
        "address2": "",
        " 開設者": "医療法人社団　聖敬会田中医院",
        " 管理者": "池谷　賢太郎",
        "start_date": "1997/01/01"
      },
      "geometry": {
        "type": "Point",
        "coordinates": [
          138.393705,
          34.98
        ]
      }
    },
    {
      "type": "Feature",
      "properties": {
        "#": "201",
        "name": "渡辺内科医院",
        "address1": "駿河区池田649番地の1",
        "address2": "",
        " 開設者": "医療法人社団　池田会渡辺内科医院",
        " 管理者": "渡辺　恵",
        "start_date": "1990/09/01"
      },
      "geometry": {
        "type": "Point",
        "coordinates": [
          138.423753,
          34.978865
        ]
      }
    },
    {
      "type": "Feature",
      "properties": {
        "#": "278",
        "name": "渡辺内科医院",
        "address1": "清水区上清水町11番18号",
        "address2": "",
        " 開設者": "医療法人社団　浩栄会",
        " 管理者": "渡辺　浩一",
        "start_date": "1989/06/01"
      },
      "geometry": {
        "type": "Point",
        "coordinates": [
          138.479836,
          35.010929
        ]
      }
    },
    {
      "type": "Feature",
      "properties": {
        "#": "255",
        "name": "土屋医院",
        "address1": "清水区三保３４０番地の１０",
        "address2": "",
        " 開設者": "医療法人社団忠仁会",
        " 管理者": "土屋　政仁",
        "start_date": "2005/07/01"
      },
      "geometry": {
        "type": "Point",
        "coordinates": [
          138.512528,
          35.001717
        ]
      }
    },
    {
      "type": "Feature",
      "properties": {
        "#": "254",
        "name": "土川整形外科",
        "address1": "清水区鶴舞町４番１２号",
        "address2": "",
        " 開設者": "医療法人社団秀樹会",
        " 管理者": "土川　秀紀",
        "start_date": "1989/08/01"
      },
      "geometry": {
        "type": "Point",
        "coordinates": [
          138.473592,
          35.017503
        ]
      }
    },
    {
      "type": "Feature",
      "properties": {
        "#": "178",
        "name": "東静岡クリニック",
        "address1": "駿河区曲金七丁目８番10号１階",
        "address2": "",
        " 開設者": "医療法人社団　チームHSK",
        " 管理者": "白川　京佐",
        "start_date": "2017/08/19"
      },
      "geometry": {
        "type": "Point",
        "coordinates": [
          138.415142,
          34.981884
        ]
      }
    },
    {
      "type": "Feature",
      "properties": {
        "#": "179",
        "name": "東静岡耳鼻科",
        "address1": "駿河区曲金六丁目10番14号",
        "address2": "東静岡サウスクリニックモール２Ｆ",
        " 開設者": "加藤　高志",
        " 管理者": "加藤　高志",
        "start_date": "2012/12/19"
      },
      "geometry": {
        "type": "Point",
        "coordinates": [
          138.412626,
          34.9823
        ]
      }
    },
    {
      "type": "Feature",
      "properties": {
        "#": "74",
        "name": "東泉クリニック",
        "address1": "葵区呉服町一丁目20番地",
        "address2": "呉服町タワー204号",
        " 開設者": "医療法人社団　東泉クリニック",
        " 管理者": "宮部　理香",
        "start_date": "2014/04/01"
      },
      "geometry": {
        "type": "Point",
        "coordinates": [
          138.380437,
          34.975867
        ]
      }
    },
    {
      "type": "Feature",
      "properties": {
        "#": "231",
        "name": "独立行政法人地域医療機能推進機構　桜ヶ丘病院",
        "address1": "清水区桜が丘町１３番２３号",
        "address2": "",
        " 開設者": "独立行政法人地域医療機能推進機構",
        " 管理者": "根橋　良雄",
        "start_date": "1948/04/21"
      },
      "geometry": {
        "type": "Point",
        "coordinates": [
          138.479556,
          35.009218
        ]
      }
    },
    {
      "type": "Feature",
      "properties": {
        "#": "80",
        "name": "内科　杉山医院",
        "address1": "葵区水道町10番地の5",
        "address2": "",
        " 開設者": "医療法人社団　水道町内科杉山医院",
        " 管理者": "杉山博通",
        "start_date": "2006/02/01"
      },
      "geometry": {
        "type": "Point",
        "coordinates": [
          138.36948,
          34.985716
        ]
      }
    },
    {
      "type": "Feature",
      "properties": {
        "#": "78",
        "name": "内科・循環器科  星野医院",
        "address1": "葵区上足洗2-11-45",
        "address2": "",
        " 開設者": "星野　恒雄",
        " 管理者": "星野　恒雄",
        "start_date": ""
      },
      "geometry": {
        "type": "Point",
        "coordinates": [
          138.393619,
          34.99319
        ]
      }
    },
    {
      "type": "Feature",
      "properties": {
        "#": "79",
        "name": "内科・循環器内科　鏑木医院",
        "address1": "葵区岳美15番50号",
        "address2": "",
        " 開設者": "鏑木　敏志",
        " 管理者": "鏑木　敏志",
        "start_date": "2019/01/01"
      },
      "geometry": {
        "type": "Point",
        "coordinates": [
          138.388422,
          35.009463
        ]
      }
    },
    {
      "type": "Feature",
      "properties": {
        "#": "77",
        "name": "内科胃腸科　八木医院",
        "address1": "葵区籠上28番24号",
        "address2": "",
        " 開設者": "医療法人社団　大龍会",
        " 管理者": "八木　龍夫",
        "start_date": "2010/03/01"
      },
      "geometry": {
        "type": "Point",
        "coordinates": [
          138.370443,
          34.993915
        ]
      }
    },
    {
      "type": "Feature",
      "properties": {
        "#": "270",
        "name": "南しみずメディカルクリニック　木内医院",
        "address1": "清水区上力町5-28",
        "address2": "",
        " 開設者": "医療法人社団　緑英会",
        " 管理者": "木内　英則",
        "start_date": "1993/05/06"
      },
      "geometry": {
        "type": "Point",
        "coordinates": [
          138.480953,
          34.996556
        ]
      }
    },
    {
      "type": "Feature",
      "properties": {
        "#": "262",
        "name": "日野医院",
        "address1": "清水区蒲原新栄６６－２",
        "address2": "",
        " 開設者": "医療法人社団　銀杏会",
        " 管理者": "日野　昌徳",
        "start_date": "1999/08/01"
      },
      "geometry": {
        "type": "Point",
        "coordinates": [
          138.622626,
          35.125454
        ]
      }
    },
    {
      "type": "Feature",
      "properties": {
        "#": "7",
        "name": "梅ヶ島診療所",
        "address1": "葵区梅ヶ島1326番地先",
        "address2": "",
        " 開設者": "医療法人社団　龍翔襄司会瀧浪医院",
        " 管理者": "瀧浪　愼介",
        "start_date": "2010/09/01"
      },
      "geometry": {
        "type": "Point",
        "coordinates": [
          138.342192,
          35.2441
        ]
      }
    },
    {
      "type": "Feature",
      "properties": {
        "#": "175",
        "name": "萩原医院",
        "address1": "駿河区西脇29番地の1",
        "address2": "",
        " 開設者": "医療法人社団　秀慈会",
        " 管理者": "萩原秀男",
        "start_date": ""
      },
      "geometry": {
        "type": "Point",
        "coordinates": [
          138.396398,
          34.951182
        ]
      }
    },
    {
      "type": "Feature",
      "properties": {
        "#": "160",
        "name": "白鳥消化器内科医院",
        "address1": "駿河区豊田一丁目７番22号",
        "address2": "",
        " 開設者": "医療法人社団　しらとり会",
        " 管理者": "白鳥　隆",
        "start_date": "2008/05/03"
      },
      "geometry": {
        "type": "Point",
        "coordinates": [
          138.409646,
          34.969641
        ]
      }
    },
    {
      "type": "Feature",
      "properties": {
        "#": "61",
        "name": "白鳥内科クリニック",
        "address1": "葵区神明町103番地の２",
        "address2": "",
        " 開設者": "医療法人社団　白鳥下村会",
        " 管理者": "白鳥　奈津子",
        "start_date": "2010/10/01"
      },
      "geometry": {
        "type": "Point",
        "coordinates": [
          138.368466,
          34.981303
        ]
      }
    },
    {
      "type": "Feature",
      "properties": {
        "#": "60",
        "name": "白鳥内科医院",
        "address1": "葵区片羽町５８番地",
        "address2": "",
        " 開設者": "医療法人社団　スワン",
        " 管理者": "白鳥博",
        "start_date": "2004/01/01"
      },
      "geometry": {
        "type": "Point",
        "coordinates": [
          138.373574,
          34.982994
        ]
      }
    },
    {
      "type": "Feature",
      "properties": {
        "#": "161",
        "name": "白萩病院",
        "address1": "駿河区西大谷１６番地の１",
        "address2": "",
        " 開設者": "医療法人社団秀慈会",
        " 管理者": "坂田　壽衛",
        "start_date": "2003/04/14"
      },
      "geometry": {
        "type": "Point",
        "coordinates": [
          138.426373,
          34.951613
        ]
      }
    },